country,state,city,station,last_update,latitude,longitude,pollutant_id,pollutant_min,pollutant_max,pollutant_avg
India,Andhra_Pradesh,Anantapur,"Gulzarpet, Anantapur - APPCB","01-02-2024 11:00:00",14.675886,77.593027,PM10,55,125,90
India,Andhra_Pradesh,Anantapur,"Gulzarpet, Anantapur - APPCB","01-02-2024 11:00:00",14.675886,77.593027,NH3,NA,NA,NA
India,Andhra_Pradesh,Anantapur,"Gulzarpet, Anantapur - APPCB","01-02-2024 11:00:00",14.675886,77.593027,CO,26,80,42
India,Andhra_Pradesh,Chittoor,"Gangineni Cheruvu, Chittoor - APPCB","01-02-2024 11:00:00",13.204880,79.097889,PM10,28,124,82
India,Andhra_Pradesh,Kadapa,"Yerramukkapalli, Kadapa - APPCB","01-02-2024 11:00:00",14.465052,78.824187,PM10,22,51,36
India,Andhra_Pradesh,Tirupati,"Tirumala, Tirupati - APPCB","01-02-2024 11:00:00",13.67,79.35,NH3,1,1,1
India,Andhra_Pradesh,Tirupati,"Vaikuntapuram, Tirupati - APPCB","01-02-2024 11:00:00",13.615387,79.409230,NO2,16,24,20
India,Andhra_Pradesh,Tirupati,"Vaikuntapuram, Tirupati - APPCB","01-02-2024 11:00:00",13.615387,79.409230,CO,8,16,12
India,Andhra_Pradesh,Vijayawada,"HB Colony, Vijayawada - APPCB","01-02-2024 11:00:00",16.536107,80.594233,CO,24,26,24
India,Andhra_Pradesh,Vijayawada,"Rajiv Gandhi Park, Vijayawada - APPCB","01-02-2024 11:00:00",16.509717,80.612222,CO,32,35,33
India,Andhra_Pradesh,Vijayawada,"Rajiv Gandhi Park, Vijayawada - APPCB","01-02-2024 11:00:00",16.509717,80.612222,OZONE,3,49,15
India,Andhra_Pradesh,Vijayawada,"Rajiv Nagar, Vijayawada - APPCB","01-02-2024 11:00:00",16.554731,80.649110,NH3,1,2,1
India,Andhra_Pradesh,Vijayawada,"Rajiv Nagar, Vijayawada - APPCB","01-02-2024 11:00:00",16.554731,80.649110,SO2,5,39,19
India,Andhra_Pradesh,Vijayawada,"Rajiv Nagar, Vijayawada - APPCB","01-02-2024 11:00:00",16.554731,80.649110,OZONE,4,51,11
India,Andhra_Pradesh,Visakhapatnam,"GVM Corporation, Visakhapatnam - APPCB","01-02-2024 11:00:00",17.72,83.3,NO2,16,68,45
India,Andhra_Pradesh,Visakhapatnam,"GVM Corporation, Visakhapatnam - APPCB","01-02-2024 11:00:00",17.72,83.3,OZONE,9,57,12
India,Assam,Byrnihat,"Central Academy for SFS, Byrnihat - PCBA","01-02-2024 11:00:00",26.071318,91.87488,PM10,105,500,305
India,Assam,Guwahati,"IITG, Guwahati - PCBA","01-02-2024 11:00:00",26.2028636,91.70046436,PM10,73,175,123
India,Assam,Guwahati,"IITG, Guwahati - PCBA","01-02-2024 11:00:00",26.2028636,91.70046436,CO,12,22,13
India,Assam,Guwahati,"LGBI Airport, Guwahati - PCBA","01-02-2024 11:00:00",26.10887,91.589544,NO2,10,62,32
India,Assam,Guwahati,"LGBI Airport, Guwahati - PCBA","01-02-2024 11:00:00",26.10887,91.589544,CO,20,90,32
India,Assam,Guwahati,"LGBI Airport, Guwahati - PCBA","01-02-2024 11:00:00",26.10887,91.589544,OZONE,1,61,12
India,Assam,Guwahati,"Railway Colony, Guwahati - PCBA","01-02-2024 11:00:00",26.181742,91.78063,PM2.5,79,346,172
India,Assam,Nagaon,"Christianpatty, Nagaon - PCBA","01-02-2024 11:00:00",26.349082,92.68449,CO,16,57,25
India,Assam,Nalbari,"Bata Chowk, Nalbari - PCBA","01-02-2024 11:00:00",26.446912,91.439057,PM2.5,42,308,89
India,Assam,Nalbari,"Bata Chowk, Nalbari - PCBA","01-02-2024 11:00:00",26.446912,91.439057,NH3,1,3,1
India,Assam,Nalbari,"Bata Chowk, Nalbari - PCBA","01-02-2024 11:00:00",26.446912,91.439057,SO2,5,15,9
India,Assam,Nalbari,"Bata Chowk, Nalbari - PCBA","01-02-2024 11:00:00",26.446912,91.439057,OZONE,18,76,37
India,Assam,Silchar,"Tarapur, Silchar - PCBA","01-02-2024 11:00:00",24.82827,92.79525,PM10,51,58,54
India,Assam,Silchar,"Tarapur, Silchar - PCBA","01-02-2024 11:00:00",24.82827,92.79525,NO2,38,38,38
India,Assam,Sivasagar,"Girls College, Sivasagar - PCBA","01-02-2024 11:00:00",26.987634,94.636574,NO2,13,24,18
India,Assam,Sivasagar,"Girls College, Sivasagar - PCBA","01-02-2024 11:00:00",26.987634,94.636574,SO2,4,5,4
India,Bihar,Araria,"Kharahiya Basti, Araria - BSPCB","01-02-2024 11:00:00",26.146529,87.454184,SO2,10,18,15
India,Bihar,Arrah,"New DM Office, Arrah - BSPCB","01-02-2024 11:00:00",25.5626095,84.663264,SO2,15,20,18
India,Bihar,Aurangabad,"Gurdeo Nagar, Aurangabad - BSPCB","01-02-2024 11:00:00",24.75746,84.366208,SO2,6,16,14
India,Bihar,Bettiah,"Kamalnath Nagar, Bettiah - BSPCB","01-02-2024 11:00:00",26.80365,84.51954,NO2,11,20,15
India,Bihar,Bettiah,"Kamalnath Nagar, Bettiah - BSPCB","01-02-2024 11:00:00",26.80365,84.51954,NH3,3,4,3
India,Bihar,Bhagalpur,"DM Office_Kachari Chowk, Bhagalpur - BSPCB","01-02-2024 11:00:00",25.251013,86.989001,PM2.5,302,406,347
India,Bihar,Bhagalpur,"DM Office_Kachari Chowk, Bhagalpur - BSPCB","01-02-2024 11:00:00",25.251013,86.989001,NO2,50,97,71
India,Bihar,Bhagalpur,"Mayaganj, Bhagalpur - BSPCB","01-02-2024 11:00:00",25.265194,87.012947,SO2,10,13,12
India,Bihar,"Bihar Sharif","D M Colony, Bihar Sharif - BSPCB","01-02-2024 11:00:00",25.204762,85.514960,PM2.5,137,443,313
India,Bihar,"Bihar Sharif","D M Colony, Bihar Sharif - BSPCB","01-02-2024 11:00:00",25.204762,85.514960,OZONE,1,60,16
India,Bihar,Gaya,"SFTI Kusdihra, Gaya - BSPCB","01-02-2024 11:00:00",24.762518,84.982348,SO2,8,10,9
India,Bihar,Hajipur,"Industrial Area, Hajipur - BSPCB","01-02-2024 11:00:00",25.697189,85.245900,SO2,5,7,6
India,Bihar,Kishanganj,"SDM Office_Khagra, Kishanganj - BSPCB","01-02-2024 11:00:00",26.0881305,87.93840336,NH3,12,22,15
India,Bihar,Manguraha,"Forest Rest House, Manguraha - BSPCB","01-02-2024 11:00:00",27.308328,84.531742,PM10,81,161,112
India,Bihar,Motihari,"Gandak Colony, Motihari - BSPCB","01-02-2024 11:00:00",26.63086,84.90051,NH3,7,13,10
India,Bihar,Munger,"Town Hall, Munger - BSPCB","01-02-2024 11:00:00",25.376776,86.471523,NO2,8,10,9
India,Bihar,Muzaffarpur,"Buddha Colony, Muzaffarpur - BSPCB","01-02-2024 11:00:00",26.11442,85.39813,NO2,34,107,54
India,Bihar,Muzaffarpur,"MIT-Daudpur Kothi, Muzaffarpur - BSPCB","01-02-2024 11:00:00",26.1403345,85.3650192,CO,63,117,99
India,Bihar,Patna,"DRM Office Danapur, Patna - BSPCB","01-02-2024 11:00:00",25.586562,85.043586,OZONE,10,95,19
India,Bihar,Patna,"Govt. High School Shikarpur, Patna - BSPCB","01-02-2024 11:00:00",25.592539,85.227158,CO,50,173,75
India,Bihar,Patna,"IGSC Planetarium Complex, Patna - BSPCB","01-02-2024 11:00:00",25.610369,85.132568,SO2,4,11,7
India,Bihar,Patna,"IGSC Planetarium Complex, Patna - BSPCB","01-02-2024 11:00:00",25.610369,85.132568,CO,8,24,12
India,Bihar,Patna,"Rajbansi Nagar, Patna - BSPCB","01-02-2024 11:00:00",25.599486,85.113666,PM10,210,448,350
India,Bihar,Patna,"Rajbansi Nagar, Patna - BSPCB","01-02-2024 11:00:00",25.599486,85.113666,NO2,71,121,88
India,Bihar,Patna,"Rajbansi Nagar, Patna - BSPCB","01-02-2024 11:00:00",25.599486,85.113666,CO,36,127,74
India,Bihar,Patna,"Rajbansi Nagar, Patna - BSPCB","01-02-2024 11:00:00",25.599486,85.113666,OZONE,2,85,14
India,Bihar,Patna,"Samanpura, Patna - BSPCB","01-02-2024 11:00:00",25.596727,85.085624,PM10,229,500,425
India,Bihar,Patna,"Samanpura, Patna - BSPCB","01-02-2024 11:00:00",25.596727,85.085624,NH3,3,3,3
India,Bihar,Purnia,"Mariam Nagar, Purnia - BSPCB","01-02-2024 11:00:00",25.366336,87.117468,SO2,15,28,20
India,Bihar,Purnia,"Mariam Nagar, Purnia - BSPCB","01-02-2024 11:00:00",25.366336,87.117468,CO,4,133,38
India,Bihar,Rajgir,"Dangi Tola, Rajgir - BSPCB","01-02-2024 11:00:00",25.03280,85.41948,NH3,NA,NA,NA
India,Bihar,Rajgir,"Dangi Tola, Rajgir - BSPCB","01-02-2024 11:00:00",25.03280,85.41948,OZONE,NA,NA,NA
India,Bihar,Saharsa,"Police Line, Saharsa - BSPCB","01-02-2024 11:00:00",25.892357,86.590325,CO,1,105,17
India,Chandigarh,Chandigarh,"Sector 22, Chandigarh - CPCC","01-02-2024 11:00:00",30.735567,76.775714,NO2,14,113,50
India,Chandigarh,Chandigarh,"Sector-25, Chandigarh - CPCC","01-02-2024 11:00:00",30.751462,76.762879,PM10,94,180,142
India,Chandigarh,Chandigarh,"Sector-25, Chandigarh - CPCC","01-02-2024 11:00:00",30.751462,76.762879,OZONE,1,51,16
India,Chandigarh,Chandigarh,"Sector-53, Chandigarh - CPCC","01-02-2024 11:00:00",30.719859,76.738637,PM2.5,40,381,268
India,Chandigarh,Chandigarh,"Sector-53, Chandigarh - CPCC","01-02-2024 11:00:00",30.719859,76.738637,PM10,53,411,171
India,Chhattisgarh,Bhilai,"32Bungalows, Bhilai - CECB","01-02-2024 11:00:00",21.194815,81.314770,NO2,17,29,23
India,Chhattisgarh,Bhilai,"Civic Center, Bhilai - Bhilai Steel Plant","01-02-2024 11:00:00",21.185571,81.343175,CO,NA,NA,NA
India,Chhattisgarh,Bhilai,"Hathkhoj, Bhilai - CECB","01-02-2024 11:00:00",21.224231,81.408350,PM10,96,164,125
India,Chhattisgarh,Korba,"Rampur, Korba - CECB","01-02-2024 11:00:00",22.368195,82.746431,PM10,37,52,45
India,Chhattisgarh,Milupara,"Govt. Higher Secondary School, Milupara - CECB","01-02-2024 11:00:00",22.1910172,83.5197009,NH3,1,2,2
India,Chhattisgarh,Milupara,"Govt. Higher Secondary School, Milupara - CECB","01-02-2024 11:00:00",22.1910172,83.5197009,SO2,NA,NA,NA
India,Chhattisgarh,Milupara,"Govt. Higher Secondary School, Milupara - CECB","01-02-2024 11:00:00",22.1910172,83.5197009,CO,5,47,5
India,Chhattisgarh,Raipur,"AIIMS, Raipur - CECB","01-02-2024 11:00:00",21.258815,81.578979,PM2.5,62,115,75
India,Chhattisgarh,Raipur,"AIIMS, Raipur - CECB","01-02-2024 11:00:00",21.258815,81.578979,OZONE,1,10,1
India,Chhattisgarh,Raipur,"Bhatagaon New ISBT, Raipur - CECB","01-02-2024 11:00:00",21.219665,81.630094,PM2.5,53,146,77
India,Chhattisgarh,Raipur,"Bhatagaon New ISBT, Raipur - CECB","01-02-2024 11:00:00",21.219665,81.630094,CO,34,62,50
India,Chhattisgarh,Raipur,"Bhatagaon New ISBT, Raipur - CECB","01-02-2024 11:00:00",21.219665,81.630094,OZONE,3,10,3
India,Chhattisgarh,Raipur,"Krishak Nagar, Raipur - CECB","01-02-2024 11:00:00",21.237755,81.705301,CO,36,50,42
India,Chhattisgarh,Raipur,"Siltara Phase-II, Raipur - CECB","01-02-2024 11:00:00",21.371751,81.664929,OZONE,3,8,3
India,Chhattisgarh,Tumidih,"OP Jindal Industrial Park, Tumidih - CECB","01-02-2024 11:00:00",22.06631475,83.33820077,PM2.5,NA,NA,NA
India,Chhattisgarh,Tumidih,"OP Jindal Industrial Park, Tumidih - CECB","01-02-2024 11:00:00",22.06631475,83.33820077,NO2,NA,NA,NA
India,Chhattisgarh,Tumidih,"OP Jindal Industrial Park, Tumidih - CECB","01-02-2024 11:00:00",22.06631475,83.33820077,CO,NA,NA,NA
India,Delhi,Delhi,"Alipur, Delhi - DPCC","01-02-2024 11:00:00",28.815329,77.153010,NO2,19,68,41
India,Delhi,Delhi,"Anand Vihar, Delhi - DPCC","01-02-2024 11:00:00",28.647622,77.3158090,PM2.5,32,500,262
India,Delhi,Delhi,"Anand Vihar, Delhi - DPCC","01-02-2024 11:00:00",28.647622,77.3158090,SO2,3,34,19
India,Delhi,Delhi,"Anand Vihar, Delhi - DPCC","01-02-2024 11:00:00",28.647622,77.3158090,CO,23,68,62
India,Delhi,Delhi,"Ashok Vihar, Delhi - DPCC","01-02-2024 11:00:00",28.695381,77.181665,CO,74,111,110
India,Delhi,Delhi,"Burari Crossing, Delhi - IMD","01-02-2024 11:00:00",28.7256504,77.2011573,PM10,36,401,159
India,Delhi,Delhi,"Burari Crossing, Delhi - IMD","01-02-2024 11:00:00",28.7256504,77.2011573,OZONE,21,63,29
India,Delhi,Delhi,"CRRI Mathura Road, Delhi - IMD","01-02-2024 11:00:00",28.5512005,77.2735737,PM10,29,261,112
India,Delhi,Delhi,"CRRI Mathura Road, Delhi - IMD","01-02-2024 11:00:00",28.5512005,77.2735737,NO2,10,102,65
India,Delhi,Delhi,"DTU, Delhi - CPCB","01-02-2024 11:00:00",28.7500499,77.1112615,PM2.5,26,327,140
India,Delhi,Delhi,"Dr. Karni Singh Shooting Range, Delhi - DPCC","01-02-2024 11:00:00",28.498571,77.264840,NO2,27,129,70
India,Delhi,Delhi,"Dr. Karni Singh Shooting Range, Delhi - DPCC","01-02-2024 11:00:00",28.498571,77.264840,CO,20,110,24
India,Delhi,Delhi,"IHBAS, Dilshad Garden, Delhi - CPCB","01-02-2024 11:00:00",28.6811736,77.3025234,NH3,4,16,11
India,Delhi,Delhi,"ITO, Delhi - CPCB","01-02-2024 11:00:00",28.628624,77.241060,PM10,108,419,206
India,Delhi,Delhi,"ITO, Delhi - CPCB","01-02-2024 11:00:00",28.628624,77.241060,SO2,8,32,21
India,Delhi,Delhi,"Jahangirpuri, Delhi - DPCC","01-02-2024 11:00:00",28.732820,77.170633,PM2.5,51,500,288
India,Delhi,Delhi,"Jawaharlal Nehru Stadium, Delhi - DPCC","01-02-2024 11:00:00",28.580280,77.233829,CO,20,105,44
India,Delhi,Delhi,"Lodhi Road, Delhi - IMD","01-02-2024 11:00:00",28.5918245,77.2273074,CO,44,109,46
India,Delhi,Delhi,"Major Dhyan Chand National Stadium, Delhi - DPCC","01-02-2024 11:00:00",28.611281,77.237738,PM2.5,NA,NA,NA
India,Delhi,Delhi,"Major Dhyan Chand National Stadium, Delhi - DPCC","01-02-2024 11:00:00",28.611281,77.237738,OZONE,2,16,10
India,Delhi,Delhi,"Mandir Marg, Delhi - DPCC","01-02-2024 11:00:00",28.636429,77.201067,OZONE,NA,NA,NA
India,Delhi,Delhi,"Mundka, Delhi - DPCC","01-02-2024 11:00:00",28.684678,77.076574,NO2,39,147,88
India,Delhi,Delhi,"Mundka, Delhi - DPCC","01-02-2024 11:00:00",28.684678,77.076574,OZONE,1,9,2
India,Delhi,Delhi,"NSIT Dwarka, Delhi - CPCB","01-02-2024 11:00:00",28.60909,77.0325413,SO2,9,20,14
India,Delhi,Delhi,"NSIT Dwarka, Delhi - CPCB","01-02-2024 11:00:00",28.60909,77.0325413,OZONE,16,30,22
India,Delhi,Delhi,"Najafgarh, Delhi - DPCC","01-02-2024 11:00:00",28.570173,76.933762,PM2.5,NA,NA,NA
India,Delhi,Delhi,"Najafgarh, Delhi - DPCC","01-02-2024 11:00:00",28.570173,76.933762,SO2,NA,NA,NA
India,Delhi,Delhi,"Nehru Nagar, Delhi - DPCC","01-02-2024 11:00:00",28.567890,77.250515,SO2,2,19,11
India,Delhi,Delhi,"Nehru Nagar, Delhi - DPCC","01-02-2024 11:00:00",28.567890,77.250515,OZONE,2,45,17
India,Delhi,Delhi,"New Moti Bagh, Delhi - MHUA","01-02-2024 11:00:00",28.57834,77.18400,PM2.5,67,497,280
India,Delhi,Delhi,"Okhla Phase-2, Delhi - DPCC","01-02-2024 11:00:00",28.530785,77.271255,NO2,34,113,71
India,Delhi,Delhi,"Okhla Phase-2, Delhi - DPCC","01-02-2024 11:00:00",28.530785,77.271255,SO2,1,7,4
India,Delhi,Delhi,"Okhla Phase-2, Delhi - DPCC","01-02-2024 11:00:00",28.530785,77.271255,OZONE,11,31,22
India,Delhi,Delhi,"Patparganj, Delhi - DPCC","01-02-2024 11:00:00",28.623763,77.287209,PM2.5,15,405,62
India,Delhi,Delhi,"Patparganj, Delhi - DPCC","01-02-2024 11:00:00",28.623763,77.287209,SO2,7,13,10
India,Delhi,Delhi,"Punjabi Bagh, Delhi - DPCC","01-02-2024 11:00:00",28.674045,77.131023,SO2,10,20,15
India,Delhi,Delhi,"Pusa, Delhi - DPCC","01-02-2024 11:00:00",28.639652,77.146275,NO2,79,382,189
India,Delhi,Delhi,"Pusa, Delhi - DPCC","01-02-2024 11:00:00",28.639652,77.146275,CO,5,102,24
India,Delhi,Delhi,"Pusa, Delhi - DPCC","01-02-2024 11:00:00",28.639652,77.146275,OZONE,15,35,22
India,Delhi,Delhi,"Pusa, Delhi - IMD","01-02-2024 11:00:00",28.636110,77.173332,PM2.5,8,424,184
India,Delhi,Delhi,"R K Puram, Delhi - DPCC","01-02-2024 11:00:00",28.563262,77.186937,PM2.5,52,483,254
India,Delhi,Delhi,"R K Puram, Delhi - DPCC","01-02-2024 11:00:00",28.563262,77.186937,NO2,10,125,44
India,Delhi,Delhi,"Rohini, Delhi - DPCC","01-02-2024 11:00:00",28.732528,77.119920,PM10,39,453,181
India,Delhi,Delhi,"Rohini, Delhi - DPCC","01-02-2024 11:00:00",28.732528,77.119920,NO2,23,85,56
India,Delhi,Delhi,"Shadipur, Delhi - CPCB","01-02-2024 11:00:00",28.6514781,77.1473105,PM10,21,432,201
India,Delhi,Delhi,"Shadipur, Delhi - CPCB","01-02-2024 11:00:00",28.6514781,77.1473105,NO2,40,83,55
India,Delhi,Delhi,"Shadipur, Delhi - CPCB","01-02-2024 11:00:00",28.6514781,77.1473105,NH3,15,19,17
India,Delhi,Delhi,"Sirifort, Delhi - CPCB","01-02-2024 11:00:00",28.5504249,77.2159377,OZONE,3,59,5
India,Delhi,Delhi,"Sonia Vihar, Delhi - DPCC","01-02-2024 11:00:00",28.710508,77.249485,NH3,8,13,11
India,Delhi,Delhi,"Sri Aurobindo Marg, Delhi - DPCC","01-02-2024 11:00:00",28.531346,77.190156,NO2,27,113,66
India,Delhi,Delhi,"Sri Aurobindo Marg, Delhi - DPCC","01-02-2024 11:00:00",28.531346,77.190156,SO2,7,16,11
India,Delhi,Delhi,"Vivek Vihar, Delhi - DPCC","01-02-2024 11:00:00",28.672342,77.315260,NO2,45,120,75
India,Delhi,Delhi,"Vivek Vihar, Delhi - DPCC","01-02-2024 11:00:00",28.672342,77.315260,NH3,8,18,12
India,Delhi,Delhi,"Vivek Vihar, Delhi - DPCC","01-02-2024 11:00:00",28.672342,77.315260,OZONE,5,41,12
India,Gujarat,Ahmedabad,"Chandkheda, Ahmedabad - IITM","01-02-2024 11:00:00",23.107969,72.574648,NH3,4,4,4
India,Gujarat,Ahmedabad,"Gyaspur, Ahmedabad - IITM","01-02-2024 11:00:00",22.977134,72.553024,SO2,26,27,26
India,Gujarat,Ahmedabad,"Gyaspur, Ahmedabad - IITM","01-02-2024 11:00:00",22.977134,72.553024,OZONE,11,19,13
India,Gujarat,Ahmedabad,"Raikhad, Ahmedabad - IITM","01-02-2024 11:00:00",23.020509,72.579261,PM10,59,135,103
India,Gujarat,Ahmedabad,"Raikhad, Ahmedabad - IITM","01-02-2024 11:00:00",23.020509,72.579261,CO,2,100,49
India,Gujarat,Ahmedabad,"Rakhial, Ahmedabad - IITM","01-02-2024 11:00:00",23.016834,72.625775,PM10,50,177,100
India,Gujarat,Ahmedabad,"Rakhial, Ahmedabad - IITM","01-02-2024 11:00:00",23.016834,72.625775,NH3,3,9,6
India,Gujarat,Ahmedabad,"Rakhial, Ahmedabad - IITM","01-02-2024 11:00:00",23.016834,72.625775,SO2,4,28,7
India,Gujarat,Ahmedabad,"Rakhial, Ahmedabad - IITM","01-02-2024 11:00:00",23.016834,72.625775,CO,26,84,51
India,Gujarat,Ahmedabad,"Rakhial, Ahmedabad - IITM","01-02-2024 11:00:00",23.016834,72.625775,OZONE,1,37,2
India,Gujarat,Ahmedabad,"SAC ISRO Satellite, Ahmedabad - IITM","01-02-2024 11:00:00",23.023389,72.515201,PM2.5,97,166,139
India,Gujarat,Ahmedabad,"SAC ISRO Satellite, Ahmedabad - IITM","01-02-2024 11:00:00",23.023389,72.515201,PM10,81,100,96
India,Gujarat,Ahmedabad,"SAC ISRO Satellite, Ahmedabad - IITM","01-02-2024 11:00:00",23.023389,72.515201,CO,27,50,42
India,Gujarat,Ahmedabad,"Sardar Vallabhbhai Patel Stadium, Ahmedabad - IITM","01-02-2024 11:00:00",23.043070,72.562968,PM10,75,175,116
India,Gujarat,Ahmedabad,"Sardar Vallabhbhai Patel Stadium, Ahmedabad - IITM","01-02-2024 11:00:00",23.043070,72.562968,CO,22,115,29
India,Gujarat,Ankleshwar,"GIDC, Ankleshwar - GPCB","01-02-2024 11:00:00",21.613267,73.010555,PM2.5,71,304,111
India,Gujarat,Ankleshwar,"GIDC, Ankleshwar - GPCB","01-02-2024 11:00:00",21.613267,73.010555,OZONE,20,31,21
India,Gujarat,Gandhinagar,"IIPHG Lekawada, Gandhinagar - IITM","01-02-2024 11:00:00",23.243639,72.68994,PM2.5,65,193,117
India,Gujarat,Gandhinagar,"IIPHG Lekawada, Gandhinagar - IITM","01-02-2024 11:00:00",23.243639,72.68994,NH3,3,3,3
India,Gujarat,Gandhinagar,"IIPHG Lekawada, Gandhinagar - IITM","01-02-2024 11:00:00",23.243639,72.68994,SO2,17,19,17
India,Gujarat,Gandhinagar,"IIPHG Lekawada, Gandhinagar - IITM","01-02-2024 11:00:00",23.243639,72.68994,CO,42,71,59
India,Gujarat,Surat,"Science Center, Surat - SMC","01-02-2024 11:00:00",21.170046,72.795405,PM2.5,8,73,31
India,Gujarat,Surat,"Science Center, Surat - SMC","01-02-2024 11:00:00",21.170046,72.795405,SO2,15,25,19
India,Haryana,Ambala,"Patti Mehar, Ambala - HSPCB","01-02-2024 11:00:00",30.379589,76.778328,SO2,4,35,10
India,Haryana,Bahadurgarh,"Arya Nagar, Bahadurgarh - HSPCB","01-02-2024 11:00:00",28.6701,76.9254,NH3,11,13,11
India,Haryana,Bahadurgarh,"Arya Nagar, Bahadurgarh - HSPCB","01-02-2024 11:00:00",28.6701,76.9254,CO,36,72,49
India,Haryana,Bahadurgarh,"Arya Nagar, Bahadurgarh - HSPCB","01-02-2024 11:00:00",28.6701,76.9254,OZONE,38,50,44
India,Haryana,Bhiwani,"H.B. Colony, Bhiwani - HSPCB","01-02-2024 11:00:00",28.806223,76.141105,PM10,46,124,93
India,Haryana,Bhiwani,"H.B. Colony, Bhiwani - HSPCB","01-02-2024 11:00:00",28.806223,76.141105,NO2,32,34,33
India,Haryana,Bhiwani,"H.B. Colony, Bhiwani - HSPCB","01-02-2024 11:00:00",28.806223,76.141105,OZONE,8,66,17
India,Haryana,Dharuhera,"Municipal Corporation Office, Dharuhera -  HSPCB","01-02-2024 11:00:00",28.206800,76.799700,NH3,NA,NA,NA
India,Haryana,Faridabad,"New Industrial Town, Faridabad - HSPCB","01-02-2024 11:00:00",28.39072,77.30059,PM2.5,6,417,209
India,Haryana,Faridabad,"New Industrial Town, Faridabad - HSPCB","01-02-2024 11:00:00",28.39072,77.30059,NH3,4,8,6
India,Haryana,Faridabad,"Sector- 16A, Faridabad - HSPCB","01-02-2024 11:00:00",28.4088421,77.3099081,NO2,NA,NA,NA
India,Haryana,Faridabad,"Sector- 16A, Faridabad - HSPCB","01-02-2024 11:00:00",28.4088421,77.3099081,CO,21,102,54
India,Haryana,Fatehabad,"Huda Sector, Fatehabad - HSPCB","01-02-2024 11:00:00",29.503664,75.467934,PM2.5,50,206,162
India,Haryana,Gurugram,"NISE Gwal Pahari, Gurugram - IMD","01-02-2024 11:00:00",28.422681,77.148944,NO2,NA,NA,NA
India,Haryana,Gurugram,"Sector-51, Gurugram - HSPCB","01-02-2024 11:00:00",28.4227,77.0667,CO,26,114,32
India,Haryana,Gurugram,"Teri Gram, Gurugram - HSPCB","01-02-2024 11:00:00",28.4275,77.1465,OZONE,10,24,10
India,Haryana,Gurugram,"Vikas Sadan, Gurugram - HSPCB","01-02-2024 11:00:00",28.4501238,77.0263051,CO,54,129,98
India,Haryana,Hisar,"Urban Estate-II, Hisar - HSPCB","01-02-2024 11:00:00",29.140560,75.744941,PM2.5,44,156,113
India,Haryana,Jind,"Police Lines, Jind - HSPCB","01-02-2024 11:00:00",29.307814,76.337619,SO2,3,9,5
India,Haryana,Kaithal,"Rishi Nagar, Kaithal - HSPCB","01-02-2024 11:00:00",29.8006,76.4155,PM2.5,71,305,218
India,Haryana,Karnal,"Sector-12, Karnal - HSPCB","01-02-2024 11:00:00",29.695300,77.002700,NH3,10,13,11
India,Haryana,Kurukshetra,"Sector-7, Kurukshetra - HSPCB","01-02-2024 11:00:00",29.966942,76.875879,PM2.5,22,343,258
India,Haryana,Kurukshetra,"Sector-7, Kurukshetra - HSPCB","01-02-2024 11:00:00",29.966942,76.875879,CO,1,105,39
India,Haryana,Mandikhera,"General Hospital, Mandikhera - HSPCB","01-02-2024 11:00:00",27.9002,76.9938,CO,26,101,37
India,Haryana,Manesar,"Sector-2 IMT, Manesar - HSPCB","01-02-2024 11:00:00",28.360699,76.936090,CO,14,86,17
India,Haryana,Manesar,"Sector-2 IMT, Manesar - HSPCB","01-02-2024 11:00:00",28.360699,76.936090,OZONE,6,18,16
India,Haryana,Narnaul,"Shastri Nagar, Narnaul - HSPCB","01-02-2024 11:00:00",28.060249,76.113115,PM10,107,195,148
India,Haryana,Panchkula,"Sector-6, Panchkula - HSPCB ","01-02-2024 11:00:00",30.7057778,76.8531805555555,NO2,28,31,29
India,Haryana,Panipat,"Sector-18, Panipat - HSPCB","01-02-2024 11:00:00",29.497973,76.993331,NO2,24,34,30
India,Haryana,Sirsa,"F-Block, Sirsa - HSPCB","01-02-2024 11:00:00",29.536400,75.015800,OZONE,20,48,29
India,Haryana,Sonipat,"Murthal, Sonipat - HSPCB","01-02-2024 11:00:00",29.027200,77.062100,PM10,40,164,114
India,Haryana,Sonipat,"Murthal, Sonipat - HSPCB","01-02-2024 11:00:00",29.027200,77.062100,NO2,37,44,40
India,Haryana,"Yamuna Nagar","Gobind Pura, Yamuna Nagar - HSPCB","01-02-2024 11:00:00",30.1480566,77.2893471,SO2,2,82,13
India,Haryana,"Yamuna Nagar","Gobind Pura, Yamuna Nagar - HSPCB","01-02-2024 11:00:00",30.1480566,77.2893471,OZONE,5,29,16
India,"Himachal Pradesh",Baddi,"HIMUDA Complex Phase-1, Baddi - HPPCB","01-02-2024 11:00:00",30.943887,76.801991,PM2.5,17,336,105
India,"Himachal Pradesh",Baddi,"HIMUDA Complex Phase-1, Baddi - HPPCB","01-02-2024 11:00:00",30.943887,76.801991,NO2,12,41,24
India,"Himachal Pradesh",Baddi,"HIMUDA Complex Phase-1, Baddi - HPPCB","01-02-2024 11:00:00",30.943887,76.801991,OZONE,15,84,38
India,Jammu_and_Kashmir,Srinagar,"Rajbagh, Srinagar - JKSPCB","01-02-2024 11:00:00",34.066206,74.819820,PM10,NA,NA,NA
India,Jharkhand,Dhanbad,"Kalakusuma, Dhanbad - DMC","01-02-2024 11:00:00",23.811548,86.481238,PM10,NA,NA,NA
India,Jharkhand,Dhanbad,"Kalakusuma, Dhanbad - DMC","01-02-2024 11:00:00",23.811548,86.481238,NO2,NA,NA,NA
India,Jharkhand,Dhanbad,"Sardar Patel Nagar, Dhanbad - JSPCB","01-02-2024 11:00:00",23.80569,86.44268,CO,98,190,178
India,Jharkhand,Pathardih,"Mohalbani Ghat, Pathardih - DMC","01-02-2024 11:00:00",23.669880,86.411725,PM10,67,377,197
India,Jharkhand,Pathardih,"Mohalbani Ghat, Pathardih - DMC","01-02-2024 11:00:00",23.669880,86.411725,CO,56,127,82
India,Karnataka,Belgaum,"Ramteerth Nagar, Belgaum - KSPCB","01-02-2024 11:00:00",15.888653,74.541751,CO,42,66,59
India,Karnataka,Belgaum,"Ramteerth Nagar, Belgaum - KSPCB","01-02-2024 11:00:00",15.888653,74.541751,OZONE,19,20,20
India,Karnataka,Bengaluru,"Bapuji Nagar, Bengaluru - KSPCB","01-02-2024 11:00:00",12.951913,77.539784,SO2,6,10,7
India,Karnataka,Bengaluru,"Bapuji Nagar, Bengaluru - KSPCB","01-02-2024 11:00:00",12.951913,77.539784,CO,32,55,37
India,Karnataka,Bengaluru,"City Railway Station, Bengaluru - KSPCB","01-02-2024 11:00:00",12.9756843,77.5660749,PM10,NA,NA,NA
India,Karnataka,Bengaluru,"City Railway Station, Bengaluru - KSPCB","01-02-2024 11:00:00",12.9756843,77.5660749,SO2,NA,NA,NA
India,Karnataka,Bengaluru,"Jigani, Bengaluru - KSPCB","01-02-2024 11:00:00",12.7816279,77.6299145,PM2.5,20,303,91
India,Karnataka,Bengaluru,"Jigani, Bengaluru - KSPCB","01-02-2024 11:00:00",12.7816279,77.6299145,PM10,44,165,102
India,Karnataka,Bengaluru,"Jigani, Bengaluru - KSPCB","01-02-2024 11:00:00",12.7816279,77.6299145,SO2,6,8,6
India,Karnataka,Bengaluru,"Peenya, Bengaluru - CPCB","01-02-2024 11:00:00",13.0270199,77.494094,CO,21,82,29
India,Karnataka,Bengaluru,"RVCE-Mailasandra, Bengaluru - KSPCB","01-02-2024 11:00:00",12.921418,77.502466,PM2.5,55,301,104
India,Karnataka,Bengaluru,"Sanegurava Halli, Bengaluru - KSPCB","01-02-2024 11:00:00",12.990328,77.5431385,CO,2,130,8
India,Karnataka,Bengaluru,"Silk Board, Bengaluru - KSPCB","01-02-2024 11:00:00",12.917348,77.622813,PM10,55,475,151
India,Karnataka,Bengaluru,"Silk Board, Bengaluru - KSPCB","01-02-2024 11:00:00",12.917348,77.622813,SO2,7,16,9
India,Karnataka,Bengaluru,"Silk Board, Bengaluru - KSPCB","01-02-2024 11:00:00",12.917348,77.622813,CO,1,131,14
India,Karnataka,Bidar,"Naubad, Bidar - KSPCB","01-02-2024 11:00:00",17.930306,77.482194,NO2,7,9,8
India,Karnataka,Chamarajanagar,"Urban, Chamarajanagar - KSPCB","01-02-2024 11:00:00",11.55358,76.55521,OZONE,14,37,17
India,Karnataka,Chikkaballapur,"Chikkaballapur Rural, Chikkaballapur - KSPCB","01-02-2024 11:00:00",13.428828,77.731418,NO2,8,31,13
India,Karnataka,Chikkaballapur,"Chikkaballapur Rural, Chikkaballapur - KSPCB","01-02-2024 11:00:00",13.428828,77.731418,SO2,15,25,22
India,Karnataka,Chikkamagaluru,"Kalyana Nagara, Chikkamagaluru - KSPCB","01-02-2024 11:00:00",13.328028,75.797056,NH3,4,6,4
India,Karnataka,Davanagere,"Devaraj Urs Badavane, Davanagere - KSPCB","01-02-2024 11:00:00",14.475800,75.905200,NH3,1,1,1
India,Karnataka,Gadag,"Panchal Nagar, Gadag - KSPCB","01-02-2024 11:00:00",15.411456,75.638133,OZONE,29,65,40
India,Karnataka,Hubballi,"Deshpande Nagar, Hubballi - KSPCB","01-02-2024 11:00:00",15.351773,75.140726,PM2.5,NA,NA,NA
India,Karnataka,Hubballi,"Deshpande Nagar, Hubballi - KSPCB","01-02-2024 11:00:00",15.351773,75.140726,PM10,NA,NA,NA
India,Karnataka,Hubballi,"Deshpande Nagar, Hubballi - KSPCB","01-02-2024 11:00:00",15.351773,75.140726,OZONE,NA,NA,NA
India,Karnataka,Hubballi,"Lingaraj Nagar, Hubballi - KSPCB","01-02-2024 11:00:00",15.3714823,75.1160168,NH3,2,2,2
India,Karnataka,Hubballi,"Lingaraj Nagar, Hubballi - KSPCB","01-02-2024 11:00:00",15.3714823,75.1160168,OZONE,12,53,22
India,Karnataka,Kalaburagi,"Lal Bahadur Shastri Nagar, Kalaburagi - KSPCB","01-02-2024 11:00:00",17.321993,76.822628,NH3,2,2,2
India,Karnataka,Kalaburagi,"Mahatma Basaveswar Colony, Kalaburgi - KSPCB","01-02-2024 11:00:00",17.336318,76.847397,PM10,22,90,49
India,Karnataka,Kalaburagi,"Mahatma Basaveswar Colony, Kalaburgi - KSPCB","01-02-2024 11:00:00",17.336318,76.847397,SO2,4,9,6
India,Karnataka,Karwar,"KHB Colony, Karwar - KSPCB","01-02-2024 11:00:00",14.816666,74.141003,PM2.5,63,200,100
India,Karnataka,Kolar,"Tamaka Ind. Area, Kolar - KSPCB","01-02-2024 11:00:00",13.1276288,78.1570122,NH3,NA,NA,NA
India,Karnataka,Koppal,"Diwator Nagar, Koppal - KSPCB","01-02-2024 11:00:00",15.347630,76.181767,NH3,4,6,5
India,Karnataka,Madikeri,"Stuart Hill, Madikeri - KSPCB","01-02-2024 11:00:00",12.415911,75.735050,NO2,3,6,4
India,Karnataka,Madikeri,"Stuart Hill, Madikeri - KSPCB","01-02-2024 11:00:00",12.415911,75.735050,OZONE,27,53,39
India,Karnataka,Mysuru,"Hebbal 1st Stage, Mysuru - KSPCB","01-02-2024 11:00:00",12.21041,76.37376,NH3,1,3,2
India,Karnataka,Shivamogga,"Vinoba Nagara, Shivamogga - KSPCB","01-02-2024 11:00:00",13.940000,75.555917,PM10,54,82,63
India,Karnataka,Shivamogga,"Vinoba Nagara, Shivamogga - KSPCB","01-02-2024 11:00:00",13.940000,75.555917,SO2,2,11,5
India,Karnataka,Tumakuru,"Thimmalapura, Tumakuru - KSPCB","01-02-2024 11:00:00",13.377516,77.099072,NH3,3,12,6
India,Karnataka,Tumakuru,"Thimmalapura, Tumakuru - KSPCB","01-02-2024 11:00:00",13.377516,77.099072,SO2,9,16,10
India,Karnataka,Udupi,"Brahmagiri, Udupi - KSPCB","01-02-2024 11:00:00",13.34194444,74.74694444,PM10,34,88,56
India,Karnataka,Udupi,"Brahmagiri, Udupi - KSPCB","01-02-2024 11:00:00",13.34194444,74.74694444,NO2,13,14,14
India,Karnataka,Vijayapura,"Ibrahimpur, Vijayapura - KSPCB","01-02-2024 11:00:00",16.802639,75.722694,PM2.5,26,31,30
India,Karnataka,Vijayapura,"Ibrahimpur, Vijayapura - KSPCB","01-02-2024 11:00:00",16.802639,75.722694,PM10,38,40,39
India,Karnataka,Vijayapura,"Ibrahimpur, Vijayapura - KSPCB","01-02-2024 11:00:00",16.802639,75.722694,NH3,2,2,2
India,Karnataka,Yadgir,"Collector Office, Yadgir - KSPCB","01-02-2024 11:00:00",16.7602,77.1428,PM2.5,50,104,74
India,Kerala,Eloor,"Udyogamandal, Eloor - Kerala PCB","01-02-2024 11:00:00",10.073232,76.302765,CO,8,116,29
India,Kerala,Kannur,"Thavakkara, Kannur - Kerala PCB","01-02-2024 11:00:00",11.875000,75.373200,SO2,5,6,5
India,Kerala,Kollam,"Polayathode, Kollam - Kerala PCB","01-02-2024 11:00:00",8.8787,76.6073,SO2,1,8,2
India,Kerala,Thiruvananthapuram,"Kariavattom, Thiruvananthapuram - Kerala PCB","01-02-2024 11:00:00",8.563700,76.886500,NO2,8,10,9
India,Kerala,Thiruvananthapuram,"Kariavattom, Thiruvananthapuram - Kerala PCB","01-02-2024 11:00:00",8.563700,76.886500,SO2,4,12,8
India,Kerala,Thiruvananthapuram,"Plammoodu, Thiruvananthapuram - Kerala PCB","01-02-2024 11:00:00",8.5149093,76.9435879,NO2,12,14,13
India,Kerala,Thrissur,"Corporation Ground, Thrissur - Kerala PCB","01-02-2024 11:00:00",10.532400,76.215900,NH3,1,1,1
India,Kerala,Thrissur,"Corporation Ground, Thrissur - Kerala PCB","01-02-2024 11:00:00",10.532400,76.215900,SO2,NA,NA,NA
India,Kerala,Thrissur,"Corporation Ground, Thrissur - Kerala PCB","01-02-2024 11:00:00",10.532400,76.215900,CO,14,152,51
India,"Madhya Pradesh",Bhopal,"Paryavaran Parisar, Bhopal - MPPCB","01-02-2024 11:00:00",23.210494,77.425409,CO,3,130,9
India,"Madhya Pradesh",Bhopal,"T T Nagar, Bhopal - MPPCB","01-02-2024 11:00:00",23.233584,77.400574,PM10,100,215,134
India,"Madhya Pradesh",Bhopal,"T T Nagar, Bhopal - MPPCB","01-02-2024 11:00:00",23.233584,77.400574,OZONE,3,127,73
India,"Madhya Pradesh",Dewas,"Bhopal Chauraha, Dewas - MPPCB","01-02-2024 11:00:00",22.9682591,76.064118,OZONE,12,48,17
India,"Madhya Pradesh",Gwalior,"City Center, Gwalior - MPPCB","01-02-2024 11:00:00",26.203442,78.193251,NO2,19,59,28
India,"Madhya Pradesh",Gwalior,"Deen Dayal Nagar, Gwalior - MPPCB","01-02-2024 11:00:00",26.259242,78.216432,SO2,14,23,17
India,"Madhya Pradesh",Gwalior,"Maharaj Bada, Gwalior - MPPCB","01-02-2024 11:00:00",26.200388,78.147714,CO,3,111,30
India,"Madhya Pradesh",Gwalior,"Phool Bagh, Gwalior - Mondelez Ind. Food","01-02-2024 11:00:00",26.210536,78.171,SO2,11,14,12
India,"Madhya Pradesh",Indore,"Chhoti Gwaltoli, Indore - MPPCB","01-02-2024 11:00:00",22.4310,75.5213,CO,50,170,109
India,"Madhya Pradesh",Indore,"Chhoti Gwaltoli, Indore - MPPCB","01-02-2024 11:00:00",22.4310,75.5213,OZONE,8,88,26
India,"Madhya Pradesh",Indore,"Maguda Nagar, Indore - IMC","01-02-2024 11:00:00",22.7524,75.8872,NO2,4,7,5
India,"Madhya Pradesh",Indore,"Maguda Nagar, Indore - IMC","01-02-2024 11:00:00",22.7524,75.8872,SO2,19,26,23
India,"Madhya Pradesh",Indore,"Residency Area, Indore - IMC","01-02-2024 11:00:00",22.7084,75.8815,SO2,23,28,25
India,"Madhya Pradesh",Jabalpur,"Govindh Bhavan Colony, Jabalpur - JMC","01-02-2024 11:00:00",23.163174,79.973061,PM2.5,50,150,71
India,"Madhya Pradesh",Jabalpur,"Govindh Bhavan Colony, Jabalpur - JMC","01-02-2024 11:00:00",23.163174,79.973061,NO2,10,33,17
India,"Madhya Pradesh",Jabalpur,"Gupteshwar, Jabalpur - JMC","01-02-2024 11:00:00",23.142888,79.916147,PM2.5,63,250,106
India,"Madhya Pradesh",Jabalpur,"Gupteshwar, Jabalpur - JMC","01-02-2024 11:00:00",23.142888,79.916147,NO2,15,134,42
India,"Madhya Pradesh",Jabalpur,"Gupteshwar, Jabalpur - JMC","01-02-2024 11:00:00",23.142888,79.916147,SO2,3,22,10
India,"Madhya Pradesh",Jabalpur,"Marhatal, Jabalpur - MPPCB","01-02-2024 11:00:00",23.168606,79.932247,PM10,108,261,159
India,"Madhya Pradesh",Jabalpur,"Marhatal, Jabalpur - MPPCB","01-02-2024 11:00:00",23.168606,79.932247,NO2,36,95,59
India,"Madhya Pradesh",Jabalpur,"Suhagi, Jabalpur - JMC","01-02-2024 11:00:00",23.218135,79.957770,CO,28,106,53
India,"Madhya Pradesh",Katni,"Gole Bazar, Katni - MPPCB","01-02-2024 11:00:00",23.50016,80.23284,NO2,20,98,47
India,"Madhya Pradesh",Maihar,"Sahilara, Maihar - KJS Cements","01-02-2024 11:00:00",24.2613009,80.7231783,SO2,14,21,16
India,"Madhya Pradesh",Mandideep,"Sector-D Industrial Area, Mandideep - MPPCB","01-02-2024 11:00:00",23.108440,77.511428,CO,22,99,63
India,"Madhya Pradesh",Pithampur,"Sector-2 Industrial Area, Pithampur - MPPCB","01-02-2024 11:00:00",22.624758,75.675238,CO,25,82,68
India,"Madhya Pradesh",Ratlam,"Shasthri Nagar, Ratlam - IPCA Lab","01-02-2024 11:00:00",23.331731,75.045981,PM2.5,41,156,77
India,"Madhya Pradesh",Sagar,"Civil Lines, Sagar - MPPCB","01-02-2024 11:00:00",23.838586,78.759431,NO2,NA,NA,NA
India,"Madhya Pradesh",Sagar,"Deen Dayal Nagar, Sagar - MPPCB","01-02-2024 11:00:00",23.8640158,78.80289321,SO2,4,13,8
India,"Madhya Pradesh",Satna,"Bandhavgar Colony, Satna - Birla Cement","01-02-2024 11:00:00",24.58434363,80.8549414,PM10,28,71,52
India,"Madhya Pradesh",Satna,"Bandhavgar Colony, Satna - Birla Cement","01-02-2024 11:00:00",24.58434363,80.8549414,CO,24,46,42
India,"Madhya Pradesh",Singrauli,"Suryakiran Bhawan NCL, Singrauli - MPPCB","01-02-2024 11:00:00",24.108970,82.645580,PM10,108,495,206
India,"Madhya Pradesh",Ujjain,"Mahakaleshwar Temple, Ujjain - MPPCB","01-02-2024 11:00:00","23.182719 ","75.768218 ",NH3,7,11,8
India,"Madhya Pradesh",Ujjain,"Mahakaleshwar Temple, Ujjain - MPPCB","01-02-2024 11:00:00","23.182719 ","75.768218 ",OZONE,116,140,132
India,Maharashtra,Ahmednagar,"Tarakpur, Ahmednagar - MPCB","01-02-2024 11:00:00",19.10122,74.73339,NH3,1,5,3
India,Maharashtra,Akola,"Ramdaspeth, Akola - MPCB","01-02-2024 11:00:00",20.719516,77.000253,CO,32,121,41
India,Maharashtra,Akola,"Ramdaspeth, Akola - MPCB","01-02-2024 11:00:00",20.719516,77.000253,OZONE,9,69,29
India,Maharashtra,Amravati,"Shivneri Colony, Amravati - MPCB","01-02-2024 11:00:00",20.9402359,77.7895248,PM2.5,79,128,100
India,Maharashtra,Amravati,"Shri Shivaji Science College, Amaravati - MPCB","01-02-2024 11:00:00",20.939198,77.765701,SO2,15,33,20
India,Maharashtra,Aurangabad,"MIDC Chilkalthana, Aurangabad - MPCB","01-02-2024 11:00:00",19.875620,75.387310,PM2.5,45,260,145
India,Maharashtra,Aurangabad,"Rachnakar Colony, Aurangabad - MPCB","01-02-2024 11:00:00",19.863756,75.321188,SO2,16,52,29
India,Maharashtra,Aurangabad,"Rachnakar Colony, Aurangabad - MPCB","01-02-2024 11:00:00",19.863756,75.321188,CO,12,108,43
India,Maharashtra,Aurangabad,"Rachnakar Colony, Aurangabad - MPCB","01-02-2024 11:00:00",19.863756,75.321188,OZONE,13,109,23
India,Maharashtra,Badlapur,"Katrap, Badlapur - MPCB","01-02-2024 11:00:00",19.16485,73.23409,NH3,2,5,3
India,Maharashtra,Belapur,"CBD Belapur, Belapur - MPCB","01-02-2024 11:00:00",19.0243902,73.0406721,CO,NA,NA,NA
India,Maharashtra,Bhiwandi,"Gokul Nagar, Bhiwandi - MPCB","01-02-2024 11:00:00",19.309073,73.057223,NH3,1,3,2
India,Maharashtra,Bhiwandi,"Gokul Nagar, Bhiwandi - MPCB","01-02-2024 11:00:00",19.309073,73.057223,SO2,9,53,21
India,Maharashtra,Chandrapur,"Chauhan Colony, Chandrapur - MPCB","01-02-2024 11:00:00",19.962900,79.298714,NO2,11,36,19
India,Maharashtra,Dhule,"Deopur, Dhule - MPCB","01-02-2024 11:00:00",20.918946,74.776388,SO2,1,23,14
India,Maharashtra,Dhule,"Deopur, Dhule - MPCB","01-02-2024 11:00:00",20.918946,74.776388,OZONE,10,68,34
India,Maharashtra,Jalgaon,"Prabhat Colony, Jalgaon - MPCB","01-02-2024 11:00:00",21.001264,75.565602,NH3,1,1,1
India,Maharashtra,Jalgaon,"Prabhat Colony, Jalgaon - MPCB","01-02-2024 11:00:00",21.001264,75.565602,CO,12,32,14
India,Maharashtra,Kalyan,"Khadakpada, Kalyan - MPCB","01-02-2024 11:00:00",19.25292,73.142019,OZONE,8,33,10
India,Maharashtra,Kolhapur,"Shivaji University, Kolhapur - MPCB","01-02-2024 11:00:00",16.6870449,74.2505872,NH3,1,8,3
India,Maharashtra,Kolhapur,"Shivaji University, Kolhapur - MPCB","01-02-2024 11:00:00",16.6870449,74.2505872,SO2,2,13,5
India,Maharashtra,Kolhapur,"Sinchan Bhavan, Kolhapur - MPCB","01-02-2024 11:00:00",16.7143745,74.2426398,PM2.5,150,183,162
India,Maharashtra,Kolhapur,"Sinchan Bhavan, Kolhapur - MPCB","01-02-2024 11:00:00",16.7143745,74.2426398,CO,5,50,23
India,Maharashtra,Latur,"Sawe Wadi, Latur - MPCB","01-02-2024 11:00:00",18.39963,76.57452,PM2.5,94,194,128
India,Maharashtra,Latur,"Sawe Wadi, Latur - MPCB","01-02-2024 11:00:00",18.39963,76.57452,NO2,9,131,40
India,Maharashtra,Latur,"Sawe Wadi, Latur - MPCB","01-02-2024 11:00:00",18.39963,76.57452,CO,19,103,28
India,Maharashtra,Mahad,"Kamble Tarf Birwadi, Mahad - MPCB","01-02-2024 11:00:00",18.1023399,73.4783687,NO2,21,220,54
India,Maharashtra,Mahad,"Kamble Tarf Birwadi, Mahad - MPCB","01-02-2024 11:00:00",18.1023399,73.4783687,CO,2,51,26
India,Maharashtra,Malegaon,"Mahesh Nagar, Malegaon - MPCB","01-02-2024 11:00:00",20.555712,74.529236,CO,25,46,33
India,Maharashtra,Malegaon,"Mahesh Nagar, Malegaon - MPCB","01-02-2024 11:00:00",20.555712,74.529236,OZONE,16,48,26
India,Maharashtra,Mira-Bhayandar,"Bhayandar West, Mira-Bhayandar - MPCB","01-02-2024 11:00:00",19.296481,72.840923,PM2.5,66,130,88
India,Maharashtra,Mumbai,"Borivali East, Mumbai - IITM","01-02-2024 11:00:00",19.23241,72.86895,NO2,27,90,46
India,Maharashtra,Mumbai,"Borivali East, Mumbai - IITM","01-02-2024 11:00:00",19.23241,72.86895,OZONE,4,57,7
India,Maharashtra,Mumbai,"Borivali East, Mumbai - MPCB","01-02-2024 11:00:00",19.2243333,72.8658113,PM10,46,150,76
India,Maharashtra,Mumbai,"Byculla, Mumbai - BMC","01-02-2024 11:00:00",18.9767,72.8380,PM10,68,136,88
India,Maharashtra,Mumbai,"Byculla, Mumbai - BMC","01-02-2024 11:00:00",18.9767,72.8380,SO2,1,13,4
India,Maharashtra,Mumbai,"Chakala-Andheri East, Mumbai - IITM","01-02-2024 11:00:00",19.11074,72.86084,PM10,120,143,131
India,Maharashtra,Mumbai,"Chhatrapati Shivaji Intl. Airport (T2), Mumbai - MPCB","01-02-2024 11:00:00",19.10078,72.87462,NO2,NA,NA,NA
India,Maharashtra,Mumbai,"Chhatrapati Shivaji Intl. Airport (T2), Mumbai - MPCB","01-02-2024 11:00:00",19.10078,72.87462,SO2,23,27,25
India,Maharashtra,Mumbai,"Colaba, Mumbai - MPCB","01-02-2024 11:00:00",18.910000,72.820000,PM2.5,51,138,68
India,Maharashtra,Mumbai,"Colaba, Mumbai - MPCB","01-02-2024 11:00:00",18.910000,72.820000,SO2,6,8,7
India,Maharashtra,Mumbai,"Colaba, Mumbai - MPCB","01-02-2024 11:00:00",18.910000,72.820000,CO,11,20,14
India,Maharashtra,Mumbai,"Ghatkopar, Mumbai - BMC","01-02-2024 11:00:00",19.083694,72.920967,PM2.5,55,194,91
India,Maharashtra,Mumbai,"Ghatkopar, Mumbai - BMC","01-02-2024 11:00:00",19.083694,72.920967,NH3,1,1,1
India,Maharashtra,Mumbai,"Ghatkopar, Mumbai - BMC","01-02-2024 11:00:00",19.083694,72.920967,CO,6,46,25
India,Maharashtra,Mumbai,"Kandivali West, Mumbai - BMC","01-02-2024 11:00:00",19.215859,72.831718,PM10,68,105,88
India,Maharashtra,Mumbai,"Kandivali West, Mumbai - BMC","01-02-2024 11:00:00",19.215859,72.831718,SO2,3,16,8
India,Maharashtra,Mumbai,"Kandivali West, Mumbai - BMC","01-02-2024 11:00:00",19.215859,72.831718,CO,14,53,28
India,Maharashtra,Mumbai,"Kherwadi_Bandra East, Mumbai - MPCB","01-02-2024 11:00:00",19.0632143,72.8456324,NO2,9,52,29
India,Maharashtra,Mumbai,"Khindipada-Bhandup West, Mumbai - IITM","01-02-2024 11:00:00",19.1653323,72.922099,CO,82,143,109
India,Maharashtra,Mumbai,"Kurla, Mumbai - MPCB","01-02-2024 11:00:00",19.0863,72.8888,OZONE,28,60,30
India,Maharashtra,Mumbai,"Malad West, Mumbai - IITM","01-02-2024 11:00:00",19.19709,72.82204,PM2.5,4,30,10
India,Maharashtra,Mumbai,"Malad West, Mumbai - IITM","01-02-2024 11:00:00",19.19709,72.82204,NO2,15,19,16
India,Maharashtra,Mumbai,"Malad West, Mumbai - IITM","01-02-2024 11:00:00",19.19709,72.82204,NH3,1,1,1
India,Maharashtra,Mumbai,"Mindspace-Malad West, Mumbai - MPCB","01-02-2024 11:00:00",19.1878657,72.8304069,CO,18,78,30
India,Maharashtra,Mumbai,"Powai, Mumbai - MPCB","01-02-2024 11:00:00",19.137500,72.915056,NH3,NA,NA,NA
India,Maharashtra,Mumbai,"Powai, Mumbai - MPCB","01-02-2024 11:00:00",19.137500,72.915056,SO2,NA,NA,NA
India,Maharashtra,Mumbai,"Sewri, Mumbai - BMC","01-02-2024 11:00:00",19.000084,72.856730,PM2.5,68,185,108
India,Maharashtra,Mumbai,"Sewri, Mumbai - BMC","01-02-2024 11:00:00",19.000084,72.856730,NH3,5,14,10
India,Maharashtra,Mumbai,"Sewri, Mumbai - BMC","01-02-2024 11:00:00",19.000084,72.856730,CO,28,68,46
India,Maharashtra,Mumbai,"Sion, Mumbai - MPCB","01-02-2024 11:00:00",19.047000,72.874600,PM10,68,121,94
India,Maharashtra,Mumbai,"Vasai West, Mumbai - MPCB","01-02-2024 11:00:00",19.383200,72.820400,SO2,15,16,16
India,Maharashtra,Mumbai,"Vile Parle West, Mumbai - MPCB","01-02-2024 11:00:00",19.10861,72.83622,PM10,63,103,77
India,Maharashtra,Mumbai,"Vile Parle West, Mumbai - MPCB","01-02-2024 11:00:00",19.10861,72.83622,OZONE,6,21,7
India,Maharashtra,Nagpur,"Ambazari, Nagpur - MPCB","01-02-2024 11:00:00",21.121801,79.04952,PM10,120,211,148
India,Maharashtra,Nagpur,"Opp GPO Civil Lines, Nagpur - MPCB","01-02-2024 11:00:00",21.152875,79.0517531,PM10,115,185,140
India,Maharashtra,Nagpur,"Opp GPO Civil Lines, Nagpur - MPCB","01-02-2024 11:00:00",21.152875,79.0517531,CO,19,130,41
India,Maharashtra,Nagpur,"Opp GPO Civil Lines, Nagpur - MPCB","01-02-2024 11:00:00",21.152875,79.0517531,OZONE,2,83,14
India,Maharashtra,Nagpur,"Ram Nagar, Nagpur - MPCB","01-02-2024 11:00:00",21.143383,79.048912,OZONE,3,111,17
India,Maharashtra,Nashik,"Gangapur Road, Nashik - MPCB","01-02-2024 11:00:00",20.0073285,73.7762427,PM2.5,29,270,91
India,Maharashtra,Nashik,"Gangapur Road, Nashik - MPCB","01-02-2024 11:00:00",20.0073285,73.7762427,NO2,2,4,3
India,Maharashtra,Nashik,"Pandav Nagari, Nashik - MPCB","01-02-2024 11:00:00",19.9591346,73.7788008,SO2,19,27,22
India,Maharashtra,Nashik,"Pandav Nagari, Nashik - MPCB","01-02-2024 11:00:00",19.9591346,73.7788008,CO,38,88,55
India,Maharashtra,"Navi Mumbai","Kopripada-Vashi, Navi Mumbai - MPCB","01-02-2024 11:00:00",19.090337,73.014232,PM2.5,55,469,196
India,Maharashtra,"Navi Mumbai","Mahape, Navi Mumbai - MPCB","01-02-2024 11:00:00",19.1135051,73.008978,PM10,NA,NA,NA
India,Maharashtra,"Navi Mumbai","Mahape, Navi Mumbai - MPCB","01-02-2024 11:00:00",19.1135051,73.008978,NO2,37,42,38
India,Maharashtra,"Navi Mumbai","Mahape, Navi Mumbai - MPCB","01-02-2024 11:00:00",19.1135051,73.008978,SO2,26,26,26
India,Maharashtra,"Navi Mumbai","Nerul, Navi Mumbai - MPCB","01-02-2024 11:00:00",19.008751,73.016620,PM2.5,38,186,87
India,Maharashtra,"Navi Mumbai","Nerul, Navi Mumbai - MPCB","01-02-2024 11:00:00",19.008751,73.016620,CO,41,84,77
India,Maharashtra,"Navi Mumbai","Sector-19A Nerul, Navi Mumbai - IITM","01-02-2024 11:00:00",19.044,73.0325,PM10,62,383,227
India,Maharashtra,"Navi Mumbai","Sector-2E Kalamboli, Navi Mumbai - MPCB","01-02-2024 11:00:00",19.02579,73.10297,NH3,9,21,13
India,Maharashtra,"Navi Mumbai","Sector-2E Kalamboli, Navi Mumbai - MPCB","01-02-2024 11:00:00",19.02579,73.10297,SO2,2,54,16
India,Maharashtra,"Navi Mumbai","Tondare-Taloja, Navi Mumbai - MPCB","01-02-2024 11:00:00",19.0630,73.1209,NH3,3,14,8
India,Maharashtra,"Navi Mumbai","Tondare-Taloja, Navi Mumbai - MPCB","01-02-2024 11:00:00",19.0630,73.1209,OZONE,1,153,6
India,Maharashtra,Parbhani,"Masoom Colony, Parbhani - MPCB","01-02-2024 11:00:00",19.265594,76.761463,NO2,10,106,30
India,Maharashtra,Parbhani,"Masoom Colony, Parbhani - MPCB","01-02-2024 11:00:00",19.265594,76.761463,NH3,2,4,3
India,Maharashtra,Parbhani,"Masoom Colony, Parbhani - MPCB","01-02-2024 11:00:00",19.265594,76.761463,OZONE,22,115,62
India,Maharashtra,Pimpri-Chinchwad,"Gavalinagar, Pimpri Chinchwad - MPCB","01-02-2024 11:00:00",18.63673,73.82487,NO2,15,80,45
India,Maharashtra,Pimpri-Chinchwad,"Gavalinagar, Pimpri Chinchwad - MPCB","01-02-2024 11:00:00",18.63673,73.82487,SO2,4,18,10
India,Maharashtra,Pimpri-Chinchwad,"Park Street Wakad, Pimpri Chinchwad - MPCB","01-02-2024 11:00:00",18.59051,73.77946,NO2,49,110,80
India,Maharashtra,Pimpri-Chinchwad,"Park Street Wakad, Pimpri Chinchwad - MPCB","01-02-2024 11:00:00",18.59051,73.77946,NH3,7,16,11
India,Maharashtra,Pimpri-Chinchwad,"Park Street Wakad, Pimpri Chinchwad - MPCB","01-02-2024 11:00:00",18.59051,73.77946,SO2,4,21,10
India,Maharashtra,Pimpri-Chinchwad,"Park Street Wakad, Pimpri Chinchwad - MPCB","01-02-2024 11:00:00",18.59051,73.77946,OZONE,5,161,23
India,Maharashtra,Pimpri-Chinchwad,"Thergaon, Pimpri Chinchwad - MPCB","01-02-2024 11:00:00",18.616318,73.765797,NO2,47,116,76
India,Maharashtra,Pimpri-Chinchwad,"Thergaon, Pimpri Chinchwad - MPCB","01-02-2024 11:00:00",18.616318,73.765797,NH3,5,23,9
India,Maharashtra,Pune,"Alandi, Pune - IITM","01-02-2024 11:00:00",18.675076,73.892743,OZONE,1,37,5
India,Maharashtra,Pune,"Bhosari, Pune - IITM","01-02-2024 11:00:00",18.640051,73.848956,PM10,80,155,110
India,Maharashtra,Pune,"Bhosari, Pune - IITM","01-02-2024 11:00:00",18.640051,73.848956,OZONE,1,22,5
India,Maharashtra,Pune,"Karve Road, Pune - MPCB","01-02-2024 11:00:00",18.5011743,73.8165527,PM10,129,129,129
India,Maharashtra,Pune,"Mhada Colony, Pune - IITM","01-02-2024 11:00:00",18.573040,73.927715,NO2,6,47,21
India,Maharashtra,Pune,"Revenue Colony-Shivajinagar, Pune - IITM","01-02-2024 11:00:00",18.530085,73.849598,NO2,89,211,155
India,Maharashtra,Pune,"Revenue Colony-Shivajinagar, Pune - IITM","01-02-2024 11:00:00",18.530085,73.849598,CO,47,114,98
India,Maharashtra,Pune,"Savitribai Phule Pune University, Pune - MPCB","01-02-2024 11:00:00",18.547056,73.826908,NH3,3,8,5
India,Maharashtra,Solapur,"Dnyaneshwar Nagar, Solapur - MPCB","01-02-2024 11:00:00",17.6336264,75.9132495,NO2,15,153,52
India,Maharashtra,Solapur,"Dnyaneshwar Nagar, Solapur - MPCB","01-02-2024 11:00:00",17.6336264,75.9132495,OZONE,29,144,72
India,Maharashtra,Solapur,"Ratandeep Housing Society, Solapur - MPCB","01-02-2024 11:00:00",17.65439,75.90649,PM10,109,212,136
India,Maharashtra,Solapur,"Solapur, Solapur - MPCB","01-02-2024 11:00:00",17.6599188,75.9063906,SO2,30,41,34
India,Maharashtra,Solapur,"Solapur, Solapur - MPCB","01-02-2024 11:00:00",17.6599188,75.9063906,OZONE,33,73,36
India,Maharashtra,Thane,"Kasarvadavali, Thane - MPCB","01-02-2024 11:00:00",19.26777,72.97182,NH3,3,9,5
India,Maharashtra,Thane,"Upvan Fort, Thane - MPCB","01-02-2024 11:00:00",19.222279,72.957979,NH3,9,17,13
India,Maharashtra,Thane,"Upvan Fort, Thane - MPCB","01-02-2024 11:00:00",19.222279,72.957979,SO2,22,49,33
India,Maharashtra,Thane,"Upvan Fort, Thane - MPCB","01-02-2024 11:00:00",19.222279,72.957979,CO,7,46,26
India,Maharashtra,Ulhasnagar,"Sidhi Vinayak Nagar, Ulhasnagar - MPCB","01-02-2024 11:00:00",19.235581,73.159121,NH3,1,4,2
India,Manipur,Imphal,"DM College of Science, Imphal - Manipur PCB","01-02-2024 11:00:00",24.8207389,93.9423085,CO,6,6,6
India,Meghalaya,Shillong,"Lumpyngngad, Shillong - Meghalaya PCB","01-02-2024 11:00:00",25.5586,91.8985,PM10,1,212,122
India,Meghalaya,Shillong,"Lumpyngngad, Shillong - Meghalaya PCB","01-02-2024 11:00:00",25.5586,91.8985,NH3,1,1,1
India,Nagaland,Kohima,"PWD Juction, Kohima - NPCB","01-02-2024 11:00:00",25.6635413,94.0989878,PM2.5,98,295,168
India,Odisha,Angul,"Hakimapada, Angul - OSPCB","01-02-2024 11:00:00",20.832874,85.104082,NH3,2,5,3
India,Odisha,Balasore,"Kalidaspur, Balasore - OSPCB","01-02-2024 11:00:00",21.51161,86.89088,SO2,16,40,25
India,Odisha,Balasore,"Kalidaspur, Balasore - OSPCB","01-02-2024 11:00:00",21.51161,86.89088,OZONE,2,87,16
India,Odisha,Bhubaneswar,"Lingraj Mandir, Bhubaneswar - OSPCB","01-02-2024 11:00:00",20.240790,85.836784,PM10,45,123,81
India,Odisha,Bhubaneswar,"Patia, Bhubaneswar - OSPCB","01-02-2024 11:00:00",20.34652,85.81630,PM10,43,95,74
India,Odisha,Bhubaneswar,"Patia, Bhubaneswar - OSPCB","01-02-2024 11:00:00",20.34652,85.81630,OZONE,3,119,27
India,Odisha,Bileipada,"Tata Township, Bileipada - OSPCB","01-02-2024 11:00:00",22.06156703,85.47409613,NH3,11,11,11
India,Odisha,Brajrajnagar,"GM Office, Brajrajnagar - OSPCB","01-02-2024 11:00:00",21.8004996,83.8396977,NH3,1,4,2
India,Odisha,Byasanagar,"Ferro Chrome Colony, Byasanagar - OSPCB","01-02-2024 11:00:00",20.94185,86.11510,NO2,10,37,21
India,Odisha,Byasanagar,"Ferro Chrome Colony, Byasanagar - OSPCB","01-02-2024 11:00:00",20.94185,86.11510,NH3,2,3,3
India,Odisha,Cuttack,"CDA Area, Cuttack - OSPCB","01-02-2024 11:00:00","20.48891     ","85.84768     ",OZONE,3,91,25
India,Odisha,Nayagarh,"Dabuna, Nayagarh - OSPCB","01-02-2024 11:00:00",21.847279,85.416905,NO2,25,34,31
India,Odisha,Nayagarh,"Dabuna, Nayagarh - OSPCB","01-02-2024 11:00:00",21.847279,85.416905,NH3,2,5,4
India,Odisha,Rairangpur,"Divisional Forest Office, Rairangpur - OSPCB","01-02-2024 11:00:00",22.265816,86.174829,PM10,113,180,147
India,Odisha,Rourkela,"Fertilizer Township, Rourkela - OSPCB","01-02-2024 11:00:00",22.18972222,84.86277778,PM10,116,354,187
India,Odisha,Rourkela,"Fertilizer Township, Rourkela - OSPCB","01-02-2024 11:00:00",22.18972222,84.86277778,SO2,12,14,13
India,Odisha,Rourkela,"Raghunathpali, Rourkela - OSPCB","01-02-2024 11:00:00",22.220833,84.809444,NH3,1,3,2
India,Odisha,Rourkela,"Raghunathpali, Rourkela - OSPCB","01-02-2024 11:00:00",22.220833,84.809444,CO,50,94,58
India,Odisha,Suakati,"OMC Colony, Suakati - OSPCB","01-02-2024 11:00:00",21.606865,85.510538,NO2,7,256,64
India,Odisha,Suakati,"OMC Colony, Suakati - OSPCB","01-02-2024 11:00:00",21.606865,85.510538,CO,20,37,28
India,Odisha,Talcher,"Talcher Coalfields,Talcher - OSPCB","01-02-2024 11:00:00",20.9360711,85.1707021,SO2,19,93,36
India,Odisha,Talcher,"Talcher Coalfields,Talcher - OSPCB","01-02-2024 11:00:00",20.9360711,85.1707021,CO,4,102,10
India,Odisha,Tensa,"Barsua Iron Ore Mines, Tensa - OSPCB","01-02-2024 11:00:00",21.869985,85.167016,CO,23,32,28
India,Puducherry,Puducherry,"Jawahar Nagar, Puducherry - PPCC","01-02-2024 11:00:00",11.9309,79.8027,PM10,22,109,40
India,Puducherry,Puducherry,"Jawahar Nagar, Puducherry - PPCC","01-02-2024 11:00:00",11.9309,79.8027,NO2,6,31,18
India,Punjab,Amritsar,"Golden Temple, Amritsar - PPCB","01-02-2024 11:00:00",31.620000,74.876512,PM2.5,46,169,103
India,Punjab,Amritsar,"Golden Temple, Amritsar - PPCB","01-02-2024 11:00:00",31.620000,74.876512,OZONE,25,32,29
India,Punjab,Bathinda,"Hardev Nagar, Bathinda - PPCB","01-02-2024 11:00:00",30.233011,74.907758,SO2,7,112,36
India,Punjab,Khanna,"Kalal Majra, Khanna - PPCB","01-02-2024 11:00:00","30.736056 ",76.209694,CO,20,54,25
India,Punjab,Ludhiana,"Punjab Agricultural University, Ludhiana - PPCB","01-02-2024 11:00:00",30.9028,75.8086,NH3,5,8,6
India,Punjab,"Mandi Gobindgarh","RIMT University, Mandi Gobindgarh - PPCB","01-02-2024 11:00:00",30.649961,76.331442,NO2,30,32,31
India,Punjab,Patiala,"Model Town, Patiala - PPCB","01-02-2024 11:00:00",30.349388,76.366642,CO,20,65,47
India,Rajasthan,Ajmer,"Civil Lines,  Ajmer - RSPCB","01-02-2024 11:00:00",26.470859,74.646594,NH3,12,21,17
India,Rajasthan,Alwar,"Moti Doongri, Alwar - RSPCB","01-02-2024 11:00:00",27.554793,76.611536,PM2.5,60,250,158
India,Rajasthan,Alwar,"Moti Doongri, Alwar - RSPCB","01-02-2024 11:00:00",27.554793,76.611536,SO2,4,56,31
India,Rajasthan,Alwar,"Moti Doongri, Alwar - RSPCB","01-02-2024 11:00:00",27.554793,76.611536,OZONE,8,19,10
India,Rajasthan,Banswara,"Rati Talai, Banswara - RSPCB","01-02-2024 11:00:00",23.555190,74.440010,PM10,88,289,135
India,Rajasthan,Banswara,"Rati Talai, Banswara - RSPCB","01-02-2024 11:00:00",23.555190,74.440010,SO2,3,34,9
India,Rajasthan,Baran,"Bamboliya, Baran - RSPCB","01-02-2024 11:00:00",25.106006,76.469948,PM2.5,61,326,136
India,Rajasthan,Barmer,"Railway Colony, Barmer - RSPCB","01-02-2024 11:00:00",25.747299,71.393989,OZONE,15,93,49
India,Rajasthan,Bharatpur,"Krishna Nagar, Bharatpur - RSPCB","01-02-2024 11:00:00",27.215415,77.50873,PM2.5,20,119,85
India,Rajasthan,Bharatpur,"Krishna Nagar, Bharatpur - RSPCB","01-02-2024 11:00:00",27.215415,77.50873,OZONE,26,88,48
India,Rajasthan,Bhilwara,"Pratap Nagar, Bhilwara - RSPCB","01-02-2024 11:00:00",25.339605,74.618883,PM2.5,30,217,90
India,Rajasthan,Bhilwara,"Pratap Nagar, Bhilwara - RSPCB","01-02-2024 11:00:00",25.339605,74.618883,NO2,15,94,37
India,Rajasthan,Bhiwadi,"RIICO Ind. Area III, Bhiwadi - RSPCB","01-02-2024 11:00:00",28.194909,76.862296,SO2,3,18,12
India,Rajasthan,Bhiwadi,"RIICO Ind. Area III, Bhiwadi - RSPCB","01-02-2024 11:00:00",28.194909,76.862296,CO,2,109,79
India,Rajasthan,Bundi,"New Colony, Bundi - RSPCB","01-02-2024 11:00:00",25.435774,75.644272,NH3,4,6,5
India,Rajasthan,Chittorgarh,"Shastri Nagar, Chittorgarh - RSPCB","01-02-2024 11:00:00",24.892047,74.623527,PM2.5,18,206,101
India,Rajasthan,Chittorgarh,"Shastri Nagar, Chittorgarh - RSPCB","01-02-2024 11:00:00",24.892047,74.623527,NH3,2,8,4
India,Rajasthan,Churu,"Subash Chowk, Churu - RSPCB","01-02-2024 11:00:00",28.296139,74.961696,NH3,12,19,16
India,Rajasthan,Dholpur,"Raja Ganj, Dholpur - RSPCB","01-02-2024 11:00:00",26.699557,77.898881,PM10,131,191,163
India,Rajasthan,Dungarpur,"Bhoiwada, Dungarpur - RSPCB","01-02-2024 11:00:00",23.837789,73.714926,SO2,3,17,6
India,Rajasthan,Hanumangarh,"Housing Board, Hanumangarh - RSPCB","01-02-2024 11:00:00",29.610750,74.283608,NH3,13,20,17
India,Rajasthan,Hanumangarh,"Housing Board, Hanumangarh - RSPCB","01-02-2024 11:00:00",29.610750,74.283608,SO2,6,13,9
India,Rajasthan,Jaipur,"Adarsh Nagar, Jaipur - RSPCB","01-02-2024 11:00:00",26.902909,75.836858,PM2.5,67,312,201
India,Rajasthan,Jaipur,"Mansarovar Sector-12, Jaipur - RSPCB","01-02-2024 11:00:00",26.843698,75.766894,NH3,9,26,17
India,Rajasthan,Jaipur,"Mansarovar Sector-12, Jaipur - RSPCB","01-02-2024 11:00:00",26.843698,75.766894,CO,40,94,75
India,Rajasthan,Jaipur,"Police Commissionerate, Jaipur - RSPCB","01-02-2024 11:00:00",26.9164092,75.7994901,PM10,112,201,161
India,Rajasthan,Jaipur,"Police Commissionerate, Jaipur - RSPCB","01-02-2024 11:00:00",26.9164092,75.7994901,NH3,12,25,18
India,Rajasthan,Jaipur,"RIICO Sitapura, Jaipur - RSPCB","01-02-2024 11:00:00",26.786682,75.827928,NH3,3,5,3
India,Rajasthan,Jaipur,"Sector-2 Murlipura, Jaipur - RSPCB","01-02-2024 11:00:00",26.960669,75.771817,SO2,5,19,11
India,Rajasthan,Jaipur,"Shastri Nagar, Jaipur - RSPCB","01-02-2024 11:00:00",26.9502929,75.730943,PM2.5,28,270,186
India,Rajasthan,Jaipur,"Shastri Nagar, Jaipur - RSPCB","01-02-2024 11:00:00",26.9502929,75.730943,SO2,1,27,19
India,Rajasthan,Jaisalmer,"Sadar Bazar, Jaisalmer - RSPCB","01-02-2024 11:00:00",26.912329,70.909168,NH3,13,42,22
India,Rajasthan,Jalore,"Mudtra Sili, Jalore - RSPCB","01-02-2024 11:00:00",25.344694,72.626208,PM10,45,186,92
India,Rajasthan,Jhalawar,"Rajlaxmi Nagar, Jhalawar - RSPCB","01-02-2024 11:00:00",24.588397,76.172782,PM2.5,44,221,109
India,Rajasthan,Jhalawar,"Rajlaxmi Nagar, Jhalawar - RSPCB","01-02-2024 11:00:00",24.588397,76.172782,OZONE,5,84,30
India,Rajasthan,Jhunjhunu,"Indra Nagar, Jhunjhunu - RSPCB","01-02-2024 11:00:00",28.108988,75.386577,PM10,108,269,167
India,Rajasthan,Jhunjhunu,"Indra Nagar, Jhunjhunu - RSPCB","01-02-2024 11:00:00",28.108988,75.386577,SO2,1,5,3
India,Rajasthan,Jhunjhunu,"Indra Nagar, Jhunjhunu - RSPCB","01-02-2024 11:00:00",28.108988,75.386577,CO,45,90,68
India,Rajasthan,Jhunjhunu,"Indra Nagar, Jhunjhunu - RSPCB","01-02-2024 11:00:00",28.108988,75.386577,OZONE,4,54,21
India,Rajasthan,Jodhpur,"Digari Kalan, Jodhpur - RSPCB","01-02-2024 11:00:00",26.295810,73.082283,OZONE,11,85,35
India,Rajasthan,Jodhpur,"Jhalamand, Jodhpur - RSPCB","01-02-2024 11:00:00",26.215415,73.070156,PM2.5,17,201,49
India,Rajasthan,Jodhpur,"Mandor, Jodhpur - RSPCB","01-02-2024 11:00:00",26.358805,73.047444,PM10,37,120,64
India,Rajasthan,Jodhpur,"Mandor, Jodhpur - RSPCB","01-02-2024 11:00:00",26.358805,73.047444,NO2,28,106,42
India,Rajasthan,Jodhpur,"Mandor, Jodhpur - RSPCB","01-02-2024 11:00:00",26.358805,73.047444,SO2,2,6,4
India,Rajasthan,Jodhpur,"Mandor, Jodhpur - RSPCB","01-02-2024 11:00:00",26.358805,73.047444,CO,8,30,13
India,Rajasthan,Kota,"Dhanmandi, Kota - RSPCB","01-02-2024 11:00:00",25.164090,75.858137,PM2.5,42,335,160
India,Rajasthan,Kota,"Dhanmandi, Kota - RSPCB","01-02-2024 11:00:00",25.164090,75.858137,PM10,73,227,132
India,Rajasthan,Kota,"Nayapura, Kota - RSPCB","01-02-2024 11:00:00",25.196024,75.855668,PM2.5,72,311,198
India,Rajasthan,Kota,"Nayapura, Kota - RSPCB","01-02-2024 11:00:00",25.196024,75.855668,PM10,114,302,152
India,Rajasthan,Kota,"Nayapura, Kota - RSPCB","01-02-2024 11:00:00",25.196024,75.855668,NH3,7,12,10
India,Rajasthan,Kota,"Nayapura, Kota - RSPCB","01-02-2024 11:00:00",25.196024,75.855668,OZONE,1,110,13
India,Rajasthan,Kota,"Shrinath Puram, Kota - RSPCB","01-02-2024 11:00:00",25.14389,75.821256,PM2.5,61,304,142
India,Rajasthan,Kota,"Shrinath Puram, Kota - RSPCB","01-02-2024 11:00:00",25.14389,75.821256,SO2,7,25,11
India,Rajasthan,Pali,"Indira Colony Vistar, Pali - RSPCB","01-02-2024 11:00:00",25.771061," 73.340227",PM2.5,26,132,65
India,Rajasthan,Pali,"Indira Colony Vistar, Pali - RSPCB","01-02-2024 11:00:00",25.771061," 73.340227",NH3,6,17,13
India,Rajasthan,Pali,"Indira Colony Vistar, Pali - RSPCB","01-02-2024 11:00:00",25.771061," 73.340227",SO2,18,20,19
India,Rajasthan,Pratapgarh,"Pragati Nagar, Pratapgarh - RSPCB","01-02-2024 11:00:00",24.041198,74.780702,PM2.5,43,124,73
India,Rajasthan,Pratapgarh,"Pragati Nagar, Pratapgarh - RSPCB","01-02-2024 11:00:00",24.041198,74.780702,CO,2,23,8
India,Rajasthan,Pratapgarh,"Pragati Nagar, Pratapgarh - RSPCB","01-02-2024 11:00:00",24.041198,74.780702,OZONE,38,104,52
India,Rajasthan,Rajsamand,"Dhoinda, Rajsamand - RSPCB","01-02-2024 11:00:00",25.036360,73.883502,OZONE,8,46,19
India,Rajasthan,"Sawai Madhopur","Sahu Nagar, Sawai Madhopur - RSPCB","01-02-2024 11:00:00",26.031443,76.359327,NO2,6,26,12
India,Rajasthan,"Sawai Madhopur","Sahu Nagar, Sawai Madhopur - RSPCB","01-02-2024 11:00:00",26.031443,76.359327,SO2,4,14,9
India,Rajasthan,"Sawai Madhopur","Sahu Nagar, Sawai Madhopur - RSPCB","01-02-2024 11:00:00",26.031443,76.359327,OZONE,7,84,16
India,Rajasthan,Sikar,"Radhakishan Pura, Sikar - RSPCB","01-02-2024 11:00:00",27.608912,75.153302,PM2.5,93,355,257
India,Rajasthan,Sikar,"Radhakishan Pura, Sikar - RSPCB","01-02-2024 11:00:00",27.608912,75.153302,NH3,9,22,12
India,Rajasthan,Sikar,"Radhakishan Pura, Sikar - RSPCB","01-02-2024 11:00:00",27.608912,75.153302,SO2,4,20,7
India,Rajasthan,Sirohi,"Vedhaynath Colony, Sirohi - RSPCB","01-02-2024 11:00:00",24.885261,72.857549,NH3,6,9,7
India,Rajasthan,Sirohi,"Vedhaynath Colony, Sirohi - RSPCB","01-02-2024 11:00:00",24.885261,72.857549,CO,3,38,24
India,Rajasthan,Sirohi,"Vedhaynath Colony, Sirohi - RSPCB","01-02-2024 11:00:00",24.885261,72.857549,OZONE,5,87,34
India,Rajasthan,"Sri Ganganagar","Old City, Sri Ganganagar - RSPCB","01-02-2024 11:00:00",29.931624,73.864511,CO,56,155,66
India,Rajasthan,"Sri Ganganagar","Old City, Sri Ganganagar - RSPCB","01-02-2024 11:00:00",29.931624,73.864511,OZONE,4,61,15
India,Rajasthan,Tonk,"Shastri Nagar, Tonk - RSPCB","01-02-2024 11:00:00",26.159933,75.780517,PM10,105,195,151
India,Rajasthan,Tonk,"Shastri Nagar, Tonk - RSPCB","01-02-2024 11:00:00",26.159933,75.780517,NH3,5,14,7
India,Sikkim,Gangtok,"Zero Point GICI, Gangtok - SSPCB","01-02-2024 11:00:00",27.338530,88.614099,OZONE,11,60,23
India,TamilNadu,Ariyalur,"Keelapalur, Ariyalur - TNPCB","01-02-2024 11:00:00",11.06825,79.07033,SO2,22,28,24
India,TamilNadu,Chengalpattu,"Crescent University, Chengalpattu - TNPCB","01-02-2024 11:00:00",12.8777316,80.0834807,PM2.5,NA,NA,NA
India,TamilNadu,Chennai,"Alandur Bus Depot, Chennai - CPCB","01-02-2024 11:00:00",12.9099161,80.1076538,NO2,13,30,19
India,TamilNadu,Chennai,"Arumbakkam, Chennai - TNPCB","01-02-2024 11:00:00",13.0664,"80.2112 ",PM10,29,124,62
India,TamilNadu,Chennai,"Arumbakkam, Chennai - TNPCB","01-02-2024 11:00:00",13.0664,"80.2112 ",SO2,1,20,6
India,TamilNadu,Chennai,"Gandhi Nagar_Ennore, Chennai - TNPCB","01-02-2024 11:00:00",13.218341,80.32027,NO2,14,30,21
India,TamilNadu,Chennai,"Gandhi Nagar_Ennore, Chennai - TNPCB","01-02-2024 11:00:00",13.218341,80.32027,SO2,12,14,13
India,TamilNadu,Chennai,"Manali, Chennai - CPCB","01-02-2024 11:00:00",13.164544,80.26285,PM2.5,21,61,39
India,TamilNadu,Chennai,"Manali, Chennai - CPCB","01-02-2024 11:00:00",13.164544,80.26285,PM10,24,86,46
India,TamilNadu,Chennai,"Manali, Chennai - CPCB","01-02-2024 11:00:00",13.164544,80.26285,SO2,4,7,6
India,TamilNadu,Chennai,"Manali, Chennai - CPCB","01-02-2024 11:00:00",13.164544,80.26285,CO,22,90,65
India,TamilNadu,Chennai,"Perungudi, Chennai - TNPCB","01-02-2024 11:00:00",12.9533,80.2357,NO2,3,17,7
India,TamilNadu,Chennai,"Velachery Res. Area, Chennai - CPCB","01-02-2024 11:00:00",13.0052189,80.2398125,NO2,15,117,33
India,TamilNadu,Coimbatore,"PSG College of Arts and Science, Coimbatore - TNPCB","01-02-2024 11:00:00",11.0328,77.0349,CO,5,83,5
India,TamilNadu,Cuddalore,"Kudikadu, Cuddalore - TNPCB","01-02-2024 11:00:00",11.6829898,79.7532099,PM2.5,18,66,34
India,TamilNadu,Cuddalore,"Kudikadu, Cuddalore - TNPCB","01-02-2024 11:00:00",11.6829898,79.7532099,NO2,24,33,29
India,TamilNadu,Cuddalore,"Kudikadu, Cuddalore - TNPCB","01-02-2024 11:00:00",11.6829898,79.7532099,NH3,5,6,5
India,TamilNadu,Cuddalore,"Semmandalam, Cuddalore - TNPCB","01-02-2024 11:00:00",11.7637683,79.7499835,OZONE,1,2,2
India,TamilNadu,Gummidipoondi,"Anthoni Pillai Nagar, Gummidipoondi - TNPCB","01-02-2024 11:00:00",13.4127,80.1081,PM10,43,448,115
India,TamilNadu,Gummidipoondi,"Anthoni Pillai Nagar, Gummidipoondi - TNPCB","01-02-2024 11:00:00",13.4127,80.1081,NO2,10,15,12
India,TamilNadu,Ooty,"Bombay Castel, Ooty - TNPCB","01-02-2024 11:00:00",11.4068288,76.7138973,PM10,16,129,62
India,TamilNadu,Ooty,"Bombay Castel, Ooty - TNPCB","01-02-2024 11:00:00",11.4068288,76.7138973,CO,20,20,20
India,TamilNadu,Palkalaiperur,"Bharathidasan University, Palkalaiperur - TNPCB","01-02-2024 11:00:00",10.681158,78.741746,PM10,19,59,36
India,TamilNadu,Palkalaiperur,"Bharathidasan University, Palkalaiperur - TNPCB","01-02-2024 11:00:00",10.681158,78.741746,SO2,25,28,27
India,TamilNadu,Ramanathapuram,"Chalai Bazaar, Ramanathapuram - TNPCB","01-02-2024 11:00:00",9.36399,78.831977,SO2,NA,NA,NA
India,TamilNadu,Salem,"Sona College of Technology, Salem - TNPCB","01-02-2024 11:00:00",11.679111,78.125052,CO,NA,NA,NA
India,TamilNadu,Thoothukudi,"Meelavittan, Thoothukudi - TNPCB","01-02-2024 11:00:00","8.816428 ",78.099039,PM10,18,97,42
India,TamilNadu,Tirupur,"Kumaran College, Tirupur - TNPCB","01-02-2024 11:00:00",11.0973603,77.3228673,PM10,47,172,99
India,TamilNadu,Tirupur,"Kumaran College, Tirupur - TNPCB","01-02-2024 11:00:00",11.0973603,77.3228673,NH3,NA,NA,NA
India,TamilNadu,Tirupur,"Kumaran College, Tirupur - TNPCB","01-02-2024 11:00:00",11.0973603,77.3228673,SO2,19,19,19
India,TamilNadu,Vellore,"Vasanthapuram, Vellore - TNPCB","01-02-2024 11:00:00",12.909494,79.131861,OZONE,1,2,1
India,TamilNadu,Virudhunagar,"Collectorate Office, Virudhunagar - TNPCB","01-02-2024 11:00:00",9.559382,77.948828,SO2,16,17,16
India,TamilNadu,Virudhunagar,"Collectorate Office, Virudhunagar - TNPCB","01-02-2024 11:00:00",9.559382,77.948828,OZONE,3,3,3
India,Telangana,Hyderabad,"Bollaram Industrial Area, Hyderabad - TSPCB","01-02-2024 11:00:00",17.540891,78.358528,NH3,2,4,3
India,Telangana,Hyderabad,"Bollaram Industrial Area, Hyderabad - TSPCB","01-02-2024 11:00:00",17.540891,78.358528,CO,10,45,28
India,Telangana,Hyderabad,"Central University, Hyderabad - TSPCB","01-02-2024 11:00:00",17.460103,78.334361,PM2.5,20,40,32
India,Telangana,Hyderabad,"Central University, Hyderabad - TSPCB","01-02-2024 11:00:00",17.460103,78.334361,CO,12,57,26
India,Telangana,Hyderabad,"ECIL Kapra, Hyderabad - TSPCB","01-02-2024 11:00:00",17.470431,78.566959,OZONE,6,44,9
India,Telangana,Hyderabad,"ICRISAT Patancheru, Hyderabad - TSPCB","01-02-2024 11:00:00",17.518400,78.278777,NH3,2,2,2
India,Telangana,Hyderabad,"ICRISAT Patancheru, Hyderabad - TSPCB","01-02-2024 11:00:00",17.518400,78.278777,CO,16,96,37
India,Telangana,Hyderabad,"Kokapet, Hyderabad - TSPCB","01-02-2024 11:00:00",17.393559,78.339194,PM2.5,41,103,53
India,Telangana,Hyderabad,"Kokapet, Hyderabad - TSPCB","01-02-2024 11:00:00",17.393559,78.339194,OZONE,1,13,2
India,Telangana,Hyderabad,"Kompally Municipal Office, Hyderabad - TSPCB","01-02-2024 11:00:00",17.544899,78.486949,PM2.5,NA,NA,NA
India,Telangana,Hyderabad,"Kompally Municipal Office, Hyderabad - TSPCB","01-02-2024 11:00:00",17.544899,78.486949,CO,29,34,32
India,Telangana,Hyderabad,"Ramachandrapuram, Hyderabad - TSPCB","01-02-2024 11:00:00",17.528544,78.286195,PM2.5,30,39,35
India,Telangana,Hyderabad,"Ramachandrapuram, Hyderabad - TSPCB","01-02-2024 11:00:00",17.528544,78.286195,CO,6,40,19
India,Telangana,Hyderabad,"Sanathnagar, Hyderabad - TSPCB","01-02-2024 11:00:00",17.4559458,78.4332152,NO2,27,232,58
India,Telangana,Hyderabad,"Somajiguda, Hyderabad - TSPCB","01-02-2024 11:00:00",17.417094,78.457437,NO2,NA,NA,NA
India,Telangana,Hyderabad,"Somajiguda, Hyderabad - TSPCB","01-02-2024 11:00:00",17.417094,78.457437,SO2,NA,NA,NA
India,Telangana,Hyderabad,"Zoo Park, Hyderabad - TSPCB","01-02-2024 11:00:00",17.349694,78.451437,PM2.5,28,80,53
India,Telangana,Hyderabad,"Zoo Park, Hyderabad - TSPCB","01-02-2024 11:00:00",17.349694,78.451437,NO2,15,44,34
India,Uttar_Pradesh,Agra,"Manoharpur, Agra - UPPCB","01-02-2024 11:00:00",27.23711,78.01936,PM2.5,22,86,56
India,Uttar_Pradesh,Agra,"Manoharpur, Agra - UPPCB","01-02-2024 11:00:00",27.23711,78.01936,PM10,31,115,80
India,Uttar_Pradesh,Agra,"Manoharpur, Agra - UPPCB","01-02-2024 11:00:00",27.23711,78.01936,NO2,19,24,19
India,Uttar_Pradesh,Agra,"Rohta, Agra - UPPCB","01-02-2024 11:00:00",27.106972,78.000111,OZONE,17,18,17
India,Uttar_Pradesh,Agra,"Sanjay Palace, Agra - UPPCB","01-02-2024 11:00:00",27.19865833,78.00598056,PM2.5,22,117,73
India,Uttar_Pradesh,Agra,"Sanjay Palace, Agra - UPPCB","01-02-2024 11:00:00",27.19865833,78.00598056,PM10,41,136,97
India,Uttar_Pradesh,Agra,"Sector-3B Avas Vikas Colony, Agra - UPPCB","01-02-2024 11:00:00",27.19412,77.96237,CO,5,28,10
India,Uttar_Pradesh,Agra,"Shahjahan Garden, Agra - UPPCB","01-02-2024 11:00:00",27.169338,78.03582,NO2,32,35,35
India,Uttar_Pradesh,Agra,"Shahjahan Garden, Agra - UPPCB","01-02-2024 11:00:00",27.169338,78.03582,NH3,13,17,15
India,Uttar_Pradesh,Agra,"Shahjahan Garden, Agra - UPPCB","01-02-2024 11:00:00",27.169338,78.03582,OZONE,2,27,13
India,Uttar_Pradesh,Agra,"Shastripuram, Agra - UPPCB","01-02-2024 11:00:00",27.19862,77.92066,OZONE,5,17,8
India,Uttar_Pradesh,Baghpat,"Sardar Patel Inter College, Baghpat - UPPCB","01-02-2024 11:00:00",28.964949,77.278761,PM10,18,163,89
India,Uttar_Pradesh,Bareilly,"Civil Lines, Bareilly - UPPCB","01-02-2024 11:00:00",28.359581,79.414455,NO2,NA,NA,NA
India,Uttar_Pradesh,Bareilly,"Civil Lines, Bareilly - UPPCB","01-02-2024 11:00:00",28.359581,79.414455,SO2,NA,NA,NA
India,Uttar_Pradesh,Bareilly,"Rajendra Nagar, Bareilly - UPPCB","01-02-2024 11:00:00",28.38910936,79.42963708,CO,NA,NA,NA
India,Uttar_Pradesh,Bareilly,"Rajendra Nagar, Bareilly - UPPCB","01-02-2024 11:00:00",28.38910936,79.42963708,OZONE,NA,NA,NA
India,Uttar_Pradesh,Firozabad,"Vibhab Nagar, Firozabad - UPPCB","01-02-2024 11:00:00",27.1594,78.3953,NO2,14,15,14
India,Uttar_Pradesh,Firozabad,"Vibhab Nagar, Firozabad - UPPCB","01-02-2024 11:00:00",27.1594,78.3953,SO2,12,14,13
India,Uttar_Pradesh,Ghaziabad,"Indirapuram, Ghaziabad - UPPCB","01-02-2024 11:00:00",28.646233,77.358075,PM10,26,446,163
India,Uttar_Pradesh,Ghaziabad,"Indirapuram, Ghaziabad - UPPCB","01-02-2024 11:00:00",28.646233,77.358075,NH3,3,13,8
India,Uttar_Pradesh,Ghaziabad,"Loni, Ghaziabad - UPPCB","01-02-2024 11:00:00",28.757294,77.278792,CO,NA,NA,NA
India,Uttar_Pradesh,Ghaziabad,"Vasundhara, Ghaziabad - UPPCB","01-02-2024 11:00:00",28.6603346,77.3572563,PM10,18,331,109
India,Uttar_Pradesh,Gorakhpur,"Madan Mohan Malaviya University of Technology, Gorakhpur - UPPCB","01-02-2024 11:00:00",26.730136,83.433859,NO2,2,2,2
India,Uttar_Pradesh,"Greater Noida","Knowledge Park - III, Greater Noida - UPPCB","01-02-2024 11:00:00",28.47272,77.482000,NO2,NA,NA,NA
India,Uttar_Pradesh,"Greater Noida","Knowledge Park - V, Greater Noida - UPPCB","01-02-2024 11:00:00",28.557054,77.453663,PM2.5,24,363,170
India,Uttar_Pradesh,Hapur,"Anand Vihar, Hapur - UPPCB","01-02-2024 11:00:00",28.725645,77.749675,PM2.5,22,324,215
India,Uttar_Pradesh,Hapur,"Anand Vihar, Hapur - UPPCB","01-02-2024 11:00:00",28.725645,77.749675,CO,33,120,33
India,Uttar_Pradesh,Kanpur,"FTI Kidwai Nagar, Kanpur - UPPCB","01-02-2024 11:00:00",26.428282,80.327067,PM2.5,38,144,68
India,Uttar_Pradesh,Kanpur,"FTI Kidwai Nagar, Kanpur - UPPCB","01-02-2024 11:00:00",26.428282,80.327067,NO2,14,15,14
India,Uttar_Pradesh,Kanpur,"NSI Kalyanpur, Kanpur - UPPCB","01-02-2024 11:00:00",26.509954,80.249612,PM10,106,196,148
India,Uttar_Pradesh,Kanpur,"Nehru Nagar, Kanpur - UPPCB","01-02-2024 11:00:00",26.4703136,80.3229863,NO2,12,130,47
India,Uttar_Pradesh,Kanpur,"Nehru Nagar, Kanpur - UPPCB","01-02-2024 11:00:00",26.4703136,80.3229863,CO,16,121,48
India,Uttar_Pradesh,Khurja,"Kalindi Kunj, Khurja - UPPCB","01-02-2024 11:00:00",28.2348927,77.8683002,PM10,NA,NA,NA
India,Uttar_Pradesh,Khurja,"Kalindi Kunj, Khurja - UPPCB","01-02-2024 11:00:00",28.2348927,77.8683002,CO,6,74,9
India,Uttar_Pradesh,Khurja,"Kalindi Kunj, Khurja - UPPCB","01-02-2024 11:00:00",28.2348927,77.8683002,OZONE,21,55,26
India,Uttar_Pradesh,Lucknow,"B R Ambedkar University, Lucknow - UPPCB","01-02-2024 11:00:00",26.766433,80.927299,PM2.5,22,303,118
India,Uttar_Pradesh,Lucknow,"B R Ambedkar University, Lucknow - UPPCB","01-02-2024 11:00:00",26.766433,80.927299,NO2,11,13,12
India,Uttar_Pradesh,Lucknow,"B R Ambedkar University, Lucknow - UPPCB","01-02-2024 11:00:00",26.766433,80.927299,CO,10,97,24
India,Uttar_Pradesh,Lucknow,"Gomti Nagar, Lucknow - UPPCB","01-02-2024 11:00:00",26.868120,81.005119,NO2,7,10,8
India,Uttar_Pradesh,Lucknow,"Kendriya Vidyalaya, Lucknow - CPCB","01-02-2024 11:00:00",26.906111,80.948222,NH3,3,20,14
India,Uttar_Pradesh,Lucknow,"Kendriya Vidyalaya, Lucknow - CPCB","01-02-2024 11:00:00",26.906111,80.948222,SO2,4,11,8
India,Uttar_Pradesh,Lucknow,"Kukrail Picnic Spot-1, Lucknow - UPPCB","01-02-2024 11:00:00",26.90723,80.98579,NH3,2,2,2
India,Uttar_Pradesh,Lucknow,"Kukrail Picnic Spot-1, Lucknow - UPPCB","01-02-2024 11:00:00",26.90723,80.98579,OZONE,2,60,5
India,Uttar_Pradesh,Lucknow,"Talkatora District Industries Center, Lucknow - CPCB","01-02-2024 11:00:00",26.83399722,80.8917361,PM10,NA,NA,NA
India,Uttar_Pradesh,Meerut,"Ganga Nagar, Meerut - UPPCB","01-02-2024 11:00:00",28.999264,77.7590354,PM2.5,7,348,175
India,Uttar_Pradesh,Meerut,"Jai Bhim Nagar, Meerut - UPPCB","01-02-2024 11:00:00",28.9535882,77.7622941,PM10,9,159,84
India,Uttar_Pradesh,Meerut,"Pallavpuram Phase 2, Meerut - UPPCB","01-02-2024 11:00:00",29.063510,77.709723,PM2.5,NA,NA,NA
India,Uttar_Pradesh,Meerut,"Pallavpuram Phase 2, Meerut - UPPCB","01-02-2024 11:00:00",29.063510,77.709723,NH3,NA,NA,NA
India,Uttar_Pradesh,Moradabad,"Buddhi Vihar, Moradabad - UPPCB","01-02-2024 11:00:00",28.83526,78.74460,NH3,1,2,2
India,Uttar_Pradesh,Moradabad,"Employment Office, Moradabad - UPPCB","01-02-2024 11:00:00",28.88528,78.73880,PM10,NA,NA,NA
India,Uttar_Pradesh,Moradabad,"Kashiram Nagar, Moradabad - UPPCB","01-02-2024 11:00:00",28.849399,78.742362,NO2,NA,NA,NA
India,Uttar_Pradesh,Moradabad,"Transport Nagar, Moradabad - UPPCB","01-02-2024 11:00:00",28.802625,78.753728,PM2.5,NA,NA,NA
India,Uttar_Pradesh,Muzaffarnagar,"New Mandi, Muzaffarnagar - UPPCB","01-02-2024 11:00:00",29.4723508,77.7194031,SO2,2,35,18
India,Uttar_Pradesh,Noida,"Sector - 125, Noida - UPPCB","01-02-2024 11:00:00",28.5447608,77.3231257,NO2,26,180,79
India,Uttar_Pradesh,Noida,"Sector-1, Noida - UPPCB","01-02-2024 11:00:00",28.5898,77.3101,PM2.5,25,500,293
India,Uttar_Pradesh,Noida,"Sector-1, Noida - UPPCB","01-02-2024 11:00:00",28.5898,77.3101,SO2,4,15,9
India,Uttar_Pradesh,Noida,"Sector-1, Noida - UPPCB","01-02-2024 11:00:00",28.5898,77.3101,CO,4,102,35
India,Uttar_Pradesh,Prayagraj,"Jhunsi, Prayagraj - UPPCB","01-02-2024 11:00:00",25.425602,81.917152,NH3,5,5,5
India,Uttar_Pradesh,Prayagraj,"Jhunsi, Prayagraj - UPPCB","01-02-2024 11:00:00",25.425602,81.917152,SO2,30,33,31
India,Uttar_Pradesh,Prayagraj,"Jhunsi, Prayagraj - UPPCB","01-02-2024 11:00:00",25.425602,81.917152,OZONE,1,14,2
India,Uttar_Pradesh,Prayagraj,"Motilal Nehru NIT, Prayagraj - UPPCB","01-02-2024 11:00:00",25.494,81.863,SO2,44,58,54
India,Uttar_Pradesh,Varanasi,"Ardhali Bazar, Varanasi - UPPCB","01-02-2024 11:00:00",25.3505986,82.9083074,OZONE,17,30,19
India,Uttar_Pradesh,Varanasi,"Bhelupur, Varanasi - UPPCB","01-02-2024 11:00:00",25.301778,82.996789,PM10,33,127,73
India,Uttar_Pradesh,Varanasi,"Bhelupur, Varanasi - UPPCB","01-02-2024 11:00:00",25.301778,82.996789,SO2,21,23,22
India,Uttar_Pradesh,Varanasi,"IESD Banaras Hindu University, Varanasi - UPPCB","01-02-2024 11:00:00",25.262326,82.995408,PM2.5,11,39,26
India,Uttarakhand,Dehradun,"Doon University, Dehradun - UKPCB","01-02-2024 11:00:00",30.269444,78.044167,NO2,2,10,5
India,West_Bengal,Barrackpore,"SVSPA Campus, Barrackpore - WBPCB","01-02-2024 11:00:00",22.7605581,88.3617589,PM2.5,76,316,200
India,West_Bengal,Barrackpore,"SVSPA Campus, Barrackpore - WBPCB","01-02-2024 11:00:00",22.7605581,88.3617589,NH3,3,5,4
India,West_Bengal,Barrackpore,"SVSPA Campus, Barrackpore - WBPCB","01-02-2024 11:00:00",22.7605581,88.3617589,CO,35,98,48
India,West_Bengal,Haldia,"Priyambada Housing Estate, Haldia - WBPCB","01-02-2024 11:00:00",22.06047,88.109737,NH3,3,4,4
India,West_Bengal,Haldia,"Priyambada Housing Estate, Haldia - WBPCB","01-02-2024 11:00:00",22.06047,88.109737,OZONE,18,79,21
India,West_Bengal,Howrah,"Belur Math, Howrah - WBPCB","01-02-2024 11:00:00",22.629801,88.352017,PM10,61,148,110
India,West_Bengal,Howrah,"Ghusuri, Howrah - WBPCB","01-02-2024 11:00:00",22.611968,88.347422,PM2.5,97,310,191
India,West_Bengal,Howrah,"Padmapukur, Howrah - WBPCB","01-02-2024 11:00:00",22.5687319,88.2797276,NH3,10,15,13
India,West_Bengal,Howrah,"Padmapukur, Howrah - WBPCB","01-02-2024 11:00:00",22.5687319,88.2797276,CO,28,81,59
India,West_Bengal,Kolkata,"Ballygunge, Kolkata - WBPCB","01-02-2024 11:00:00",22.5367507,88.3638022,PM10,75,140,96
India,West_Bengal,Kolkata,"Ballygunge, Kolkata - WBPCB","01-02-2024 11:00:00",22.5367507,88.3638022,NO2,24,93,50
India,West_Bengal,Kolkata,"Ballygunge, Kolkata - WBPCB","01-02-2024 11:00:00",22.5367507,88.3638022,CO,13,35,22
India,West_Bengal,Kolkata,"Ballygunge, Kolkata - WBPCB","01-02-2024 11:00:00",22.5367507,88.3638022,OZONE,11,80,19
India,West_Bengal,Kolkata,"Bidhannagar, Kolkata - WBPCB","01-02-2024 11:00:00",22.58157048,88.41002457,NH3,9,10,10
India,West_Bengal,Kolkata,"Bidhannagar, Kolkata - WBPCB","01-02-2024 11:00:00",22.58157048,88.41002457,CO,24,44,30
India,West_Bengal,Kolkata,"Fort William, Kolkata - WBPCB","01-02-2024 11:00:00",22.556640,88.342674,NO2,26,86,54
India,West_Bengal,Kolkata,"Fort William, Kolkata - WBPCB","01-02-2024 11:00:00",22.556640,88.342674,SO2,6,25,13
India,West_Bengal,Kolkata,"Fort William, Kolkata - WBPCB","01-02-2024 11:00:00",22.556640,88.342674,OZONE,12,86,27
India,West_Bengal,Kolkata,"Jadavpur, Kolkata - WBPCB","01-02-2024 11:00:00",22.49929,88.36917,CO,11,22,17
India,West_Bengal,Kolkata,"Rabindra Sarobar, Kolkata - WBPCB","01-02-2024 11:00:00",22.51106,88.35142,PM2.5,70,96,80
India,West_Bengal,Kolkata,"Rabindra Sarobar, Kolkata - WBPCB","01-02-2024 11:00:00",22.51106,88.35142,NO2,24,82,47
India,West_Bengal,Kolkata,"Rabindra Sarobar, Kolkata - WBPCB","01-02-2024 11:00:00",22.51106,88.35142,SO2,7,29,16
India,West_Bengal,Kolkata,"Victoria, Kolkata - WBPCB","01-02-2024 11:00:00",22.5448082,88.3403691,PM2.5,74,153,107
India,West_Bengal,Kolkata,"Victoria, Kolkata - WBPCB","01-02-2024 11:00:00",22.5448082,88.3403691,NO2,14,35,21
India,West_Bengal,Siliguri,"Ward-32 Bapupara, Siliguri - WBPCB","01-02-2024 11:00:00",26.6879226,88.4152495,NH3,1,25,13
India,Andhra_Pradesh,Anantapur,"Gulzarpet, Anantapur - APPCB","01-02-2024 11:00:00",14.675886,77.593027,NO2,NA,NA,NA
India,Andhra_Pradesh,Anantapur,"Gulzarpet, Anantapur - APPCB","01-02-2024 11:00:00",14.675886,77.593027,SO2,4,10,7
India,Andhra_Pradesh,Chittoor,"Gangineni Cheruvu, Chittoor - APPCB","01-02-2024 11:00:00",13.204880,79.097889,NH3,1,2,2
India,Andhra_Pradesh,Kadapa,"Yerramukkapalli, Kadapa - APPCB","01-02-2024 11:00:00",14.465052,78.824187,PM2.5,23,61,41
India,Andhra_Pradesh,Rajamahendravaram,"Anand Kala Kshetram, Rajamahendravaram - APPCB","01-02-2024 11:00:00",16.9872867,81.7363176,SO2,17,25,22
India,Andhra_Pradesh,Rajamahendravaram,"Anand Kala Kshetram, Rajamahendravaram - APPCB","01-02-2024 11:00:00",16.9872867,81.7363176,OZONE,3,6,5
India,Andhra_Pradesh,Tirupati,"Tirumala, Tirupati - APPCB","01-02-2024 11:00:00",13.67,79.35,PM10,37,68,50
India,Andhra_Pradesh,Tirupati,"Tirumala, Tirupati - APPCB","01-02-2024 11:00:00",13.67,79.35,OZONE,13,43,19
India,Andhra_Pradesh,Tirupati,"Vaikuntapuram, Tirupati - APPCB","01-02-2024 11:00:00",13.615387,79.409230,NH3,2,3,3
India,Andhra_Pradesh,Vijayawada,"HB Colony, Vijayawada - APPCB","01-02-2024 11:00:00",16.536107,80.594233,PM2.5,36,48,40
India,Andhra_Pradesh,Vijayawada,"Kanuru, Vijayawada - APPCB","01-02-2024 11:00:00",16.486692,80.699436,NH3,1,1,1
India,Andhra_Pradesh,Vijayawada,"Rajiv Gandhi Park, Vijayawada - APPCB","01-02-2024 11:00:00",16.509717,80.612222,PM10,34,55,45
India,Andhra_Pradesh,Vijayawada,"Rajiv Nagar, Vijayawada - APPCB","01-02-2024 11:00:00",16.554731,80.649110,NO2,7,13,9
India,Andhra_Pradesh,Visakhapatnam,"GVM Corporation, Visakhapatnam - APPCB","01-02-2024 11:00:00",17.72,83.3,NH3,2,8,4
India,Arunachal_Pradesh,Naharlagun,"Naharlagun, Naharlagun - APSPCB","01-02-2024 11:00:00",27.103358,93.679645,CO,14,36,19
India,Assam,Byrnihat,"Central Academy for SFS, Byrnihat - PCBA","01-02-2024 11:00:00",26.071318,91.87488,PM2.5,167,500,363
India,Assam,Guwahati,"IITG, Guwahati - PCBA","01-02-2024 11:00:00",26.2028636,91.70046436,SO2,11,13,12
India,Assam,Guwahati,"IITG, Guwahati - PCBA","01-02-2024 11:00:00",26.2028636,91.70046436,OZONE,2,17,7
India,Assam,Guwahati,"LGBI Airport, Guwahati - PCBA","01-02-2024 11:00:00",26.10887,91.589544,NH3,1,7,3
India,Assam,Guwahati,"Pan Bazaar, Guwahati - PCBA","01-02-2024 11:00:00",26.187500,91.744194,NH3,3,4,4
India,Assam,Guwahati,"Railway Colony, Guwahati - PCBA","01-02-2024 11:00:00",26.181742,91.78063,CO,28,103,36
India,Assam,Guwahati,"Railway Colony, Guwahati - PCBA","01-02-2024 11:00:00",26.181742,91.78063,OZONE,9,40,23
India,Assam,Nagaon,"Christianpatty, Nagaon - PCBA","01-02-2024 11:00:00",26.349082,92.68449,PM10,46,174,112
India,Assam,Silchar,"Tarapur, Silchar - PCBA","01-02-2024 11:00:00",24.82827,92.79525,CO,42,56,46
India,Assam,Sivasagar,"Girls College, Sivasagar - PCBA","01-02-2024 11:00:00",26.987634,94.636574,PM2.5,14,48,28
India,Assam,Sivasagar,"Girls College, Sivasagar - PCBA","01-02-2024 11:00:00",26.987634,94.636574,OZONE,1,6,1
India,Bihar,Araria,"Kharahiya Basti, Araria - BSPCB","01-02-2024 11:00:00",26.146529,87.454184,NO2,6,8,7
India,Bihar,Aurangabad,"Gurdeo Nagar, Aurangabad - BSPCB","01-02-2024 11:00:00",24.75746,84.366208,PM10,156,309,218
India,Bihar,Aurangabad,"Gurdeo Nagar, Aurangabad - BSPCB","01-02-2024 11:00:00",24.75746,84.366208,NO2,8,22,12
India,Bihar,Aurangabad,"Gurdeo Nagar, Aurangabad - BSPCB","01-02-2024 11:00:00",24.75746,84.366208,CO,22,104,89
India,Bihar,Aurangabad,"Gurdeo Nagar, Aurangabad - BSPCB","01-02-2024 11:00:00",24.75746,84.366208,OZONE,1,97,11
India,Bihar,Bettiah,"Kamalnath Nagar, Bettiah - BSPCB","01-02-2024 11:00:00",26.80365,84.51954,SO2,7,20,15
India,Bihar,Bettiah,"Kamalnath Nagar, Bettiah - BSPCB","01-02-2024 11:00:00",26.80365,84.51954,CO,76,78,77
India,Bihar,Bhagalpur,"DM Office_Kachari Chowk, Bhagalpur - BSPCB","01-02-2024 11:00:00",25.251013,86.989001,NH3,4,8,6
India,Bihar,Bhagalpur,"Mayaganj, Bhagalpur - BSPCB","01-02-2024 11:00:00",25.265194,87.012947,OZONE,13,66,23
India,Bihar,"Bihar Sharif","D M Colony, Bihar Sharif - BSPCB","01-02-2024 11:00:00",25.204762,85.514960,PM10,101,412,186
India,Bihar,"Bihar Sharif","D M Colony, Bihar Sharif - BSPCB","01-02-2024 11:00:00",25.204762,85.514960,NO2,8,11,10
India,Bihar,"Bihar Sharif","D M Colony, Bihar Sharif - BSPCB","01-02-2024 11:00:00",25.204762,85.514960,SO2,2,17,7
India,Bihar,Chhapra,"Darshan Nagar, Chhapra - BSPCB","01-02-2024 11:00:00",25.7808257,84.7446768,PM2.5,287,489,374
India,Bihar,Chhapra,"Darshan Nagar, Chhapra - BSPCB","01-02-2024 11:00:00",25.7808257,84.7446768,NO2,21,38,28
India,Bihar,Gaya,"Kareemganj, Gaya - BSPCB","01-02-2024 11:00:00",24.792403,84.992416,PM10,140,402,222
India,Bihar,Gaya,"Kareemganj, Gaya - BSPCB","01-02-2024 11:00:00",24.792403,84.992416,OZONE,1,42,18
India,Bihar,Gaya,"SFTI Kusdihra, Gaya - BSPCB","01-02-2024 11:00:00",24.762518,84.982348,OZONE,6,76,13
India,Bihar,Hajipur,"Industrial Area, Hajipur - BSPCB","01-02-2024 11:00:00",25.697189,85.245900,PM2.5,139,323,233
India,Bihar,Katihar,"Mirchaibari, Katihar - BSPCB","01-02-2024 11:00:00",25.560083,87.553265,SO2,16,22,19
India,Bihar,Kishanganj,"SDM Office_Khagra, Kishanganj - BSPCB","01-02-2024 11:00:00",26.0881305,87.93840336,CO,4,40,5
India,Bihar,Manguraha,"Forest Rest House, Manguraha - BSPCB","01-02-2024 11:00:00",27.308328,84.531742,SO2,8,9,8
India,Bihar,Motihari,"Gandak Colony, Motihari - BSPCB","01-02-2024 11:00:00",26.63086,84.90051,PM2.5,143,362,270
India,Bihar,Motihari,"Gandak Colony, Motihari - BSPCB","01-02-2024 11:00:00",26.63086,84.90051,NO2,42,81,60
India,Bihar,Munger,"Town Hall, Munger - BSPCB","01-02-2024 11:00:00",25.376776,86.471523,NH3,1,2,2
India,Bihar,Muzaffarpur,"Buddha Colony, Muzaffarpur - BSPCB","01-02-2024 11:00:00",26.11442,85.39813,PM2.5,237,458,355
India,Bihar,Muzaffarpur,"Buddha Colony, Muzaffarpur - BSPCB","01-02-2024 11:00:00",26.11442,85.39813,CO,24,124,64
India,Bihar,Muzaffarpur,"MIT-Daudpur Kothi, Muzaffarpur - BSPCB","01-02-2024 11:00:00",26.1403345,85.3650192,PM2.5,200,405,328
India,Bihar,Muzaffarpur,"MIT-Daudpur Kothi, Muzaffarpur - BSPCB","01-02-2024 11:00:00",26.1403345,85.3650192,PM10,133,400,253
India,Bihar,Muzaffarpur,"Muzaffarpur Collectorate, Muzaffarpur - BSPCB","01-02-2024 11:00:00",26.1209,85.3647,NO2,2,10,8
India,Bihar,Patna,"DRM Office Danapur, Patna - BSPCB","01-02-2024 11:00:00",25.586562,85.043586,SO2,6,12,8
India,Bihar,Patna,"Govt. High School Shikarpur, Patna - BSPCB","01-02-2024 11:00:00",25.592539,85.227158,PM2.5,300,416,336
India,Bihar,Patna,"IGSC Planetarium Complex, Patna - BSPCB","01-02-2024 11:00:00",25.610369,85.132568,NO2,14,15,15
India,Bihar,Patna,"Muradpur, Patna - BSPCB","01-02-2024 11:00:00",25.619651,85.147382,PM2.5,304,410,344
India,Bihar,Patna,"Muradpur, Patna - BSPCB","01-02-2024 11:00:00",25.619651,85.147382,NH3,2,5,4
India,Bihar,Patna,"Muradpur, Patna - BSPCB","01-02-2024 11:00:00",25.619651,85.147382,OZONE,14,120,24
India,Bihar,Patna,"Rajbansi Nagar, Patna - BSPCB","01-02-2024 11:00:00",25.599486,85.113666,PM2.5,243,397,337
India,Bihar,Patna,"Rajbansi Nagar, Patna - BSPCB","01-02-2024 11:00:00",25.599486,85.113666,NH3,6,10,8
India,Bihar,Patna,"Samanpura, Patna - BSPCB","01-02-2024 11:00:00",25.596727,85.085624,SO2,16,17,16
India,Bihar,Patna,"Samanpura, Patna - BSPCB","01-02-2024 11:00:00",25.596727,85.085624,CO,100,198,152
India,Bihar,Purnia,"Mariam Nagar, Purnia - BSPCB","01-02-2024 11:00:00",25.366336,87.117468,NO2,11,14,13
India,Bihar,Purnia,"Mariam Nagar, Purnia - BSPCB","01-02-2024 11:00:00",25.366336,87.117468,OZONE,9,27,10
India,Bihar,Rajgir,"Dangi Tola, Rajgir - BSPCB","01-02-2024 11:00:00",25.03280,85.41948,NO2,NA,NA,NA
India,Bihar,Rajgir,"Dangi Tola, Rajgir - BSPCB","01-02-2024 11:00:00",25.03280,85.41948,SO2,NA,NA,NA
India,Bihar,Saharsa,"Police Line, Saharsa - BSPCB","01-02-2024 11:00:00",25.892357,86.590325,PM10,122,404,190
India,Bihar,Samastipur,"DM Office_Kasipur, Samastipur - BSPCB","01-02-2024 11:00:00",25.859655,85.77944,PM2.5,150,433,329
India,Bihar,Samastipur,"DM Office_Kasipur, Samastipur - BSPCB","01-02-2024 11:00:00",25.859655,85.77944,CO,4,28,26
India,Bihar,Samastipur,"DM Office_Kasipur, Samastipur - BSPCB","01-02-2024 11:00:00",25.859655,85.77944,OZONE,9,36,10
India,Bihar,Sasaram,"Dada Peer, Sasaram - BSPCB","01-02-2024 11:00:00",24.952822,84.002396,PM10,NA,NA,NA
India,Bihar,Sasaram,"Dada Peer, Sasaram - BSPCB","01-02-2024 11:00:00",24.952822,84.002396,NO2,4,21,12
India,Bihar,Siwan,"Chitragupta Nagar, Siwan - BSPCB","01-02-2024 11:00:00",26.2271665,84.3570427,PM2.5,75,336,245
India,Bihar,Siwan,"Chitragupta Nagar, Siwan - BSPCB","01-02-2024 11:00:00",26.2271665,84.3570427,PM10,71,212,152
India,Bihar,Siwan,"Chitragupta Nagar, Siwan - BSPCB","01-02-2024 11:00:00",26.2271665,84.3570427,NH3,2,52,9
India,Bihar,Siwan,"Chitragupta Nagar, Siwan - BSPCB","01-02-2024 11:00:00",26.2271665,84.3570427,CO,1,173,88
India,Bihar,Siwan,"Chitragupta Nagar, Siwan - BSPCB","01-02-2024 11:00:00",26.2271665,84.3570427,OZONE,2,94,20
India,Chandigarh,Chandigarh,"Sector-25, Chandigarh - CPCC","01-02-2024 11:00:00",30.751462,76.762879,NH3,10,25,16
India,Chandigarh,Chandigarh,"Sector-53, Chandigarh - CPCC","01-02-2024 11:00:00",30.719859,76.738637,NH3,5,15,9
India,Chandigarh,Chandigarh,"Sector-53, Chandigarh - CPCC","01-02-2024 11:00:00",30.719859,76.738637,OZONE,3,59,26
India,Chhattisgarh,Bhilai,"Civic Center, Bhilai - Bhilai Steel Plant","01-02-2024 11:00:00",21.185571,81.343175,PM2.5,NA,NA,NA
India,Chhattisgarh,Bhilai,"Civic Center, Bhilai - Bhilai Steel Plant","01-02-2024 11:00:00",21.185571,81.343175,OZONE,8,56,8
India,Chhattisgarh,Bilaspur,"Mangala, Bilaspur - NTPC","01-02-2024 11:00:00",22.08815,82.13737,PM2.5,58,122,82
India,Chhattisgarh,Bilaspur,"Mangala, Bilaspur - NTPC","01-02-2024 11:00:00",22.08815,82.13737,SO2,1,43,13
India,Chhattisgarh,Chhal,"Nawapara SECL Colony, Chhal - CECB","01-02-2024 11:00:00",22.118125,83.140608,NO2,13,63,26
India,Chhattisgarh,Chhal,"Nawapara SECL Colony, Chhal - CECB","01-02-2024 11:00:00",22.118125,83.140608,CO,69,108,91
India,Chhattisgarh,Korba,"Rampur, Korba - CECB","01-02-2024 11:00:00",22.368195,82.746431,SO2,8,25,12
India,Chhattisgarh,Kunjemura,"OP Jindal School, Kunjemura - CECB","01-02-2024 11:00:00",22.126650,83.483212,PM2.5,52,350,146
India,Chhattisgarh,Kunjemura,"OP Jindal School, Kunjemura - CECB","01-02-2024 11:00:00",22.126650,83.483212,CO,40,80,61
India,Chhattisgarh,Milupara,"Govt. Higher Secondary School, Milupara - CECB","01-02-2024 11:00:00",22.1910172,83.5197009,NO2,19,76,33
India,Chhattisgarh,Raipur,"AIIMS, Raipur - CECB","01-02-2024 11:00:00",21.258815,81.578979,SO2,7,13,9
India,Chhattisgarh,Raipur,"Bhatagaon New ISBT, Raipur - CECB","01-02-2024 11:00:00",21.219665,81.630094,NH3,2,2,2
India,Chhattisgarh,Tumidih,"OP Jindal Industrial Park, Tumidih - CECB","01-02-2024 11:00:00",22.06631475,83.33820077,NH3,NA,NA,NA
India,Chhattisgarh,Tumidih,"OP Jindal Industrial Park, Tumidih - CECB","01-02-2024 11:00:00",22.06631475,83.33820077,OZONE,NA,NA,NA
India,Delhi,Delhi,"Alipur, Delhi - DPCC","01-02-2024 11:00:00",28.815329,77.153010,CO,34,90,40
India,Delhi,Delhi,"Ashok Vihar, Delhi - DPCC","01-02-2024 11:00:00",28.695381,77.181665,PM2.5,NA,NA,NA
India,Delhi,Delhi,"Ashok Vihar, Delhi - DPCC","01-02-2024 11:00:00",28.695381,77.181665,SO2,NA,NA,NA
India,Delhi,Delhi,"Ashok Vihar, Delhi - DPCC","01-02-2024 11:00:00",28.695381,77.181665,OZONE,1,6,3
India,Delhi,Delhi,"Bawana, Delhi - DPCC","01-02-2024 11:00:00",28.776200,77.051074,PM10,42,415,201
India,Delhi,Delhi,"Bawana, Delhi - DPCC","01-02-2024 11:00:00",28.776200,77.051074,NH3,9,15,11
India,Delhi,Delhi,"CRRI Mathura Road, Delhi - IMD","01-02-2024 11:00:00",28.5512005,77.2735737,PM2.5,36,386,190
India,Delhi,Delhi,"DTU, Delhi - CPCB","01-02-2024 11:00:00",28.7500499,77.1112615,SO2,26,28,27
India,Delhi,Delhi,"DTU, Delhi - CPCB","01-02-2024 11:00:00",28.7500499,77.1112615,CO,22,101,32
India,Delhi,Delhi,"DTU, Delhi - CPCB","01-02-2024 11:00:00",28.7500499,77.1112615,OZONE,25,28,27
India,Delhi,Delhi,"Dwarka-Sector 8, Delhi - DPCC ","01-02-2024 11:00:00",28.5710274,77.0719006,SO2,3,8,5
India,Delhi,Delhi,"IGI Airport (T3), Delhi - IMD","01-02-2024 11:00:00",28.5627763,77.1180053,NO2,37,89,54
India,Delhi,Delhi,"IGI Airport (T3), Delhi - IMD","01-02-2024 11:00:00",28.5627763,77.1180053,OZONE,11,16,15
India,Delhi,Delhi,"IHBAS, Dilshad Garden, Delhi - CPCB","01-02-2024 11:00:00",28.6811736,77.3025234,SO2,2,76,14
India,Delhi,Delhi,"IHBAS, Dilshad Garden, Delhi - CPCB","01-02-2024 11:00:00",28.6811736,77.3025234,OZONE,5,23,15
India,Delhi,Delhi,"Jahangirpuri, Delhi - DPCC","01-02-2024 11:00:00",28.732820,77.170633,PM10,62,489,261
India,Delhi,Delhi,"Jahangirpuri, Delhi - DPCC","01-02-2024 11:00:00",28.732820,77.170633,OZONE,6,86,19
India,Delhi,Delhi,"Major Dhyan Chand National Stadium, Delhi - DPCC","01-02-2024 11:00:00",28.611281,77.237738,PM10,NA,NA,NA
India,Delhi,Delhi,"Major Dhyan Chand National Stadium, Delhi - DPCC","01-02-2024 11:00:00",28.611281,77.237738,NO2,35,152,87
India,Delhi,Delhi,"Major Dhyan Chand National Stadium, Delhi - DPCC","01-02-2024 11:00:00",28.611281,77.237738,NH3,11,21,15
India,Delhi,Delhi,"Major Dhyan Chand National Stadium, Delhi - DPCC","01-02-2024 11:00:00",28.611281,77.237738,SO2,2,38,9
India,Delhi,Delhi,"Mandir Marg, Delhi - DPCC","01-02-2024 11:00:00",28.636429,77.201067,NH3,NA,NA,NA
India,Delhi,Delhi,"Mandir Marg, Delhi - DPCC","01-02-2024 11:00:00",28.636429,77.201067,SO2,NA,NA,NA
India,Delhi,Delhi,"Mandir Marg, Delhi - DPCC","01-02-2024 11:00:00",28.636429,77.201067,CO,NA,NA,NA
India,Delhi,Delhi,"NSIT Dwarka, Delhi - CPCB","01-02-2024 11:00:00",28.60909,77.0325413,PM2.5,36,421,244
India,Delhi,Delhi,"NSIT Dwarka, Delhi - CPCB","01-02-2024 11:00:00",28.60909,77.0325413,PM10,29,433,173
India,Delhi,Delhi,"NSIT Dwarka, Delhi - CPCB","01-02-2024 11:00:00",28.60909,77.0325413,NO2,14,80,35
India,Delhi,Delhi,"Najafgarh, Delhi - DPCC","01-02-2024 11:00:00",28.570173,76.933762,OZONE,NA,NA,NA
India,Delhi,Delhi,"Narela, Delhi - DPCC","01-02-2024 11:00:00",28.822836,77.101981,PM2.5,49,398,254
India,Delhi,Delhi,"Narela, Delhi - DPCC","01-02-2024 11:00:00",28.822836,77.101981,NO2,29,72,51
India,Delhi,Delhi,"Narela, Delhi - DPCC","01-02-2024 11:00:00",28.822836,77.101981,CO,58,108,74
India,Delhi,Delhi,"Narela, Delhi - DPCC","01-02-2024 11:00:00",28.822836,77.101981,OZONE,8,45,32
India,Delhi,Delhi,"Nehru Nagar, Delhi - DPCC","01-02-2024 11:00:00",28.567890,77.250515,PM10,42,419,205
India,Delhi,Delhi,"North Campus, DU, Delhi - IMD","01-02-2024 11:00:00",28.6573814,77.1585447,CO,25,87,29
India,Delhi,Delhi,"Okhla Phase-2, Delhi - DPCC","01-02-2024 11:00:00",28.530785,77.271255,PM10,37,379,175
India,Delhi,Delhi,"Okhla Phase-2, Delhi - DPCC","01-02-2024 11:00:00",28.530785,77.271255,NH3,15,21,18
India,Delhi,Delhi,"Okhla Phase-2, Delhi - DPCC","01-02-2024 11:00:00",28.530785,77.271255,CO,NA,NA,NA
India,Delhi,Delhi,"Punjabi Bagh, Delhi - DPCC","01-02-2024 11:00:00",28.674045,77.131023,PM2.5,52,500,262
India,Delhi,Delhi,"Punjabi Bagh, Delhi - DPCC","01-02-2024 11:00:00",28.674045,77.131023,NH3,7,10,8
India,Delhi,Delhi,"Punjabi Bagh, Delhi - DPCC","01-02-2024 11:00:00",28.674045,77.131023,OZONE,8,13,10
India,Delhi,Delhi,"Pusa, Delhi - DPCC","01-02-2024 11:00:00",28.639652,77.146275,PM10,36,477,186
India,Delhi,Delhi,"Pusa, Delhi - DPCC","01-02-2024 11:00:00",28.639652,77.146275,SO2,8,14,12
India,Delhi,Delhi,"Pusa, Delhi - IMD","01-02-2024 11:00:00",28.636110,77.173332,OZONE,12,16,14
India,Delhi,Delhi,"R K Puram, Delhi - DPCC","01-02-2024 11:00:00",28.563262,77.186937,PM10,41,430,184
India,Delhi,Delhi,"Rohini, Delhi - DPCC","01-02-2024 11:00:00",28.732528,77.119920,PM2.5,48,464,270
India,Delhi,Delhi,"Rohini, Delhi - DPCC","01-02-2024 11:00:00",28.732528,77.119920,OZONE,2,32,17
India,Delhi,Delhi,"Sirifort, Delhi - CPCB","01-02-2024 11:00:00",28.5504249,77.2159377,SO2,31,34,33
India,Delhi,Delhi,"Sonia Vihar, Delhi - DPCC","01-02-2024 11:00:00",28.710508,77.249485,CO,34,122,53
India,Delhi,Delhi,"Sri Aurobindo Marg, Delhi - DPCC","01-02-2024 11:00:00",28.531346,77.190156,NH3,10,15,12
India,Delhi,Delhi,"Sri Aurobindo Marg, Delhi - DPCC","01-02-2024 11:00:00",28.531346,77.190156,CO,7,101,22
India,Delhi,Delhi,"Vivek Vihar, Delhi - DPCC","01-02-2024 11:00:00",28.672342,77.315260,PM10,NA,NA,NA
India,Delhi,Delhi,"Vivek Vihar, Delhi - DPCC","01-02-2024 11:00:00",28.672342,77.315260,CO,6,109,21
India,Delhi,Delhi,"Wazirpur, Delhi - DPCC","01-02-2024 11:00:00",28.699793,77.165453,NO2,54,202,133
India,Delhi,Delhi,"Wazirpur, Delhi - DPCC","01-02-2024 11:00:00",28.699793,77.165453,NH3,4,10,6
India,Delhi,Delhi,"Wazirpur, Delhi - DPCC","01-02-2024 11:00:00",28.699793,77.165453,CO,8,103,48
India,Gujarat,Ahmedabad,"Chandkheda, Ahmedabad - IITM","01-02-2024 11:00:00",23.107969,72.574648,NO2,28,32,31
India,Gujarat,Ahmedabad,"Chandkheda, Ahmedabad - IITM","01-02-2024 11:00:00",23.107969,72.574648,SO2,2,9,5
India,Gujarat,Ahmedabad,"Gyaspur, Ahmedabad - IITM","01-02-2024 11:00:00",22.977134,72.553024,PM10,31,231,80
India,Gujarat,Ahmedabad,"Gyaspur, Ahmedabad - IITM","01-02-2024 11:00:00",22.977134,72.553024,NH3,3,6,4
India,Gujarat,Ahmedabad,"Maninagar, Ahmedabad - GPCB","01-02-2024 11:00:00",23.002657,72.591912,OZONE,6,174,33
India,Gujarat,Ahmedabad,"Raikhad, Ahmedabad - IITM","01-02-2024 11:00:00",23.020509,72.579261,NO2,11,15,14
India,Gujarat,Ahmedabad,"Raikhad, Ahmedabad - IITM","01-02-2024 11:00:00",23.020509,72.579261,NH3,3,5,3
India,Gujarat,Ahmedabad,"Rakhial, Ahmedabad - IITM","01-02-2024 11:00:00",23.016834,72.625775,PM2.5,41,269,96
India,Gujarat,Ahmedabad,"SAC ISRO Bopal, Ahmedabad - IITM","01-02-2024 11:00:00",23.041137,72.456691,SO2,11,14,12
India,Gujarat,Ahmedabad,"SVPI Airport Hansol, Ahmedabad - IITM","01-02-2024 11:00:00",23.076793,72.627874,NO2,NA,NA,NA
India,Gujarat,Ahmedabad,"SVPI Airport Hansol, Ahmedabad - IITM","01-02-2024 11:00:00",23.076793,72.627874,OZONE,5,8,7
India,Gujarat,Ahmedabad,"Sardar Vallabhbhai Patel Stadium, Ahmedabad - IITM","01-02-2024 11:00:00",23.043070,72.562968,NO2,NA,NA,NA
India,Gujarat,Ahmedabad,"Sardar Vallabhbhai Patel Stadium, Ahmedabad - IITM","01-02-2024 11:00:00",23.043070,72.562968,NH3,NA,NA,NA
India,Gujarat,Gandhinagar,"GIFT City, Gandhinagar - IITM","01-02-2024 11:00:00",23.163798,72.677768,PM10,83,187,119
India,Gujarat,Surat,"Science Center, Surat - SMC","01-02-2024 11:00:00",21.170046,72.795405,PM10,8,120,45
India,Gujarat,Surat,"Science Center, Surat - SMC","01-02-2024 11:00:00",21.170046,72.795405,NO2,8,19,13
India,Gujarat,Vapi,"Phase-1 GIDC, Vapi - GPCB","01-02-2024 11:00:00",20.362421,72.918013,PM2.5,54,329,205
India,Gujarat,Vapi,"Phase-1 GIDC, Vapi - GPCB","01-02-2024 11:00:00",20.362421,72.918013,NH3,15,20,17
India,Gujarat,Vapi,"Phase-1 GIDC, Vapi - GPCB","01-02-2024 11:00:00",20.362421,72.918013,OZONE,2,2,2
India,Haryana,Ambala,"Patti Mehar, Ambala - HSPCB","01-02-2024 11:00:00",30.379589,76.778328,PM2.5,1,283,152
India,Haryana,Ambala,"Patti Mehar, Ambala - HSPCB","01-02-2024 11:00:00",30.379589,76.778328,NO2,2,3,3
India,Haryana,Ambala,"Patti Mehar, Ambala - HSPCB","01-02-2024 11:00:00",30.379589,76.778328,CO,30,60,53
India,Haryana,Ambala,"Patti Mehar, Ambala - HSPCB","01-02-2024 11:00:00",30.379589,76.778328,OZONE,29,49,35
India,Haryana,Bahadurgarh,"Arya Nagar, Bahadurgarh - HSPCB","01-02-2024 11:00:00",28.6701,76.9254,PM10,30,244,124
India,Haryana,Ballabgarh,"Nathu Colony, Ballabgarh - HSPCB","01-02-2024 11:00:00",28.3419248,77.319699,PM2.5,14,319,152
India,Haryana,Ballabgarh,"Nathu Colony, Ballabgarh - HSPCB","01-02-2024 11:00:00",28.3419248,77.319699,SO2,8,131,32
India,Haryana,Bhiwani,"H.B. Colony, Bhiwani - HSPCB","01-02-2024 11:00:00",28.806223,76.141105,PM2.5,50,193,117
India,Haryana,"Charkhi Dadri","Mini Secretariat, Charkhi Dadri - HSPCB","01-02-2024 11:00:00",28.593883,76.270653,PM10,43,181,114
India,Haryana,Dharuhera,"Municipal Corporation Office, Dharuhera -  HSPCB","01-02-2024 11:00:00",28.206800,76.799700,PM2.5,NA,NA,NA
India,Haryana,Dharuhera,"Municipal Corporation Office, Dharuhera -  HSPCB","01-02-2024 11:00:00",28.206800,76.799700,PM10,NA,NA,NA
India,Haryana,Faridabad,"Sector 11, Faridabad - HSPCB","01-02-2024 11:00:00",28.376058,77.315741,NH3,6,6,6
India,Haryana,Faridabad,"Sector 30, Faridabad - HSPCB","01-02-2024 11:00:00",28.4417,77.3217,SO2,NA,NA,NA
India,Haryana,Faridabad,"Sector 30, Faridabad - HSPCB","01-02-2024 11:00:00",28.4417,77.3217,CO,NA,NA,NA
India,Haryana,Faridabad,"Sector 30, Faridabad - HSPCB","01-02-2024 11:00:00",28.4417,77.3217,OZONE,NA,NA,NA
India,Haryana,Fatehabad,"Huda Sector, Fatehabad - HSPCB","01-02-2024 11:00:00",29.503664,75.467934,NO2,29,31,30
India,Haryana,Fatehabad,"Huda Sector, Fatehabad - HSPCB","01-02-2024 11:00:00",29.503664,75.467934,NH3,10,10,10
India,Haryana,Gurugram,"NISE Gwal Pahari, Gurugram - IMD","01-02-2024 11:00:00",28.422681,77.148944,CO,NA,NA,NA
India,Haryana,Gurugram,"NISE Gwal Pahari, Gurugram - IMD","01-02-2024 11:00:00",28.422681,77.148944,OZONE,NA,NA,NA
India,Haryana,Gurugram,"Sector-51, Gurugram - HSPCB","01-02-2024 11:00:00",28.4227,77.0667,NO2,13,29,24
India,Haryana,Gurugram,"Sector-51, Gurugram - HSPCB","01-02-2024 11:00:00",28.4227,77.0667,NH3,6,14,9
India,Haryana,Gurugram,"Sector-51, Gurugram - HSPCB","01-02-2024 11:00:00",28.4227,77.0667,SO2,3,138,23
India,Haryana,Gurugram,"Sector-51, Gurugram - HSPCB","01-02-2024 11:00:00",28.4227,77.0667,OZONE,27,67,46
India,Haryana,Hisar,"Urban Estate-II, Hisar - HSPCB","01-02-2024 11:00:00",29.140560,75.744941,CO,53,93,60
India,Haryana,Jind,"Police Lines, Jind - HSPCB","01-02-2024 11:00:00",29.307814,76.337619,PM10,43,127,94
India,Haryana,Jind,"Police Lines, Jind - HSPCB","01-02-2024 11:00:00",29.307814,76.337619,NO2,7,15,11
India,Haryana,Jind,"Police Lines, Jind - HSPCB","01-02-2024 11:00:00",29.307814,76.337619,CO,18,128,60
India,Haryana,Kaithal,"Rishi Nagar, Kaithal - HSPCB","01-02-2024 11:00:00",29.8006,76.4155,SO2,7,109,27
India,Haryana,Kaithal,"Rishi Nagar, Kaithal - HSPCB","01-02-2024 11:00:00",29.8006,76.4155,OZONE,5,17,8
India,Haryana,Karnal,"Sector-12, Karnal - HSPCB","01-02-2024 11:00:00",29.695300,77.002700,SO2,12,13,13
India,Haryana,Palwal,"Shyam Nagar, Palwal - HSPCB","01-02-2024 11:00:00",28.1485564,77.3320667,PM2.5,NA,NA,NA
India,Haryana,Palwal,"Shyam Nagar, Palwal - HSPCB","01-02-2024 11:00:00",28.1485564,77.3320667,NO2,NA,NA,NA
India,Haryana,Palwal,"Shyam Nagar, Palwal - HSPCB","01-02-2024 11:00:00",28.1485564,77.3320667,NH3,NA,NA,NA
India,Haryana,Panchkula,"Sector-6, Panchkula - HSPCB ","01-02-2024 11:00:00",30.7057778,76.8531805555555,SO2,12,12,12
India,Haryana,Panipat,"Sector-18, Panipat - HSPCB","01-02-2024 11:00:00",29.497973,76.993331,PM10,102,112,107
India,Haryana,Panipat,"Sector-18, Panipat - HSPCB","01-02-2024 11:00:00",29.497973,76.993331,NH3,2,3,3
India,Haryana,Panipat,"Sector-18, Panipat - HSPCB","01-02-2024 11:00:00",29.497973,76.993331,CO,22,28,25
India,Haryana,Rohtak,"MD University, Rohtak - HSPCB","01-02-2024 11:00:00",28.52123,76.37138,NO2,48,53,51
India,Haryana,Sirsa,"F-Block, Sirsa - HSPCB","01-02-2024 11:00:00",29.536400,75.015800,PM2.5,47,137,76
India,Haryana,Sirsa,"F-Block, Sirsa - HSPCB","01-02-2024 11:00:00",29.536400,75.015800,PM10,50,106,74
India,Haryana,"Yamuna Nagar","Gobind Pura, Yamuna Nagar - HSPCB","01-02-2024 11:00:00",30.1480566,77.2893471,PM2.5,19,325,226
India,Haryana,"Yamuna Nagar","Gobind Pura, Yamuna Nagar - HSPCB","01-02-2024 11:00:00",30.1480566,77.2893471,NH3,1,6,3
India,"Himachal Pradesh",Baddi,"HIMUDA Complex Phase-1, Baddi - HPPCB","01-02-2024 11:00:00",30.943887,76.801991,NH3,3,6,4
India,Jharkhand,Dhanbad,"Kalakusuma, Dhanbad - DMC","01-02-2024 11:00:00",23.811548,86.481238,PM2.5,NA,NA,NA
India,Jharkhand,Dhanbad,"Sardar Patel Nagar, Dhanbad - JSPCB","01-02-2024 11:00:00",23.80569,86.44268,NO2,1,218,92
India,Jharkhand,Dhanbad,"Sardar Patel Nagar, Dhanbad - JSPCB","01-02-2024 11:00:00",23.80569,86.44268,OZONE,8,33,10
India,Karnataka,Belgaum,"Ramteerth Nagar, Belgaum - KSPCB","01-02-2024 11:00:00",15.888653,74.541751,PM10,36,124,67
India,Karnataka,Bengaluru,"BTM Layout, Bengaluru - CPCB","01-02-2024 11:00:00",12.9135218,77.5950804,NH3,2,2,2
India,Karnataka,Bengaluru,"Bapuji Nagar, Bengaluru - KSPCB","01-02-2024 11:00:00",12.951913,77.539784,PM10,45,236,106
India,Karnataka,Bengaluru,"City Railway Station, Bengaluru - KSPCB","01-02-2024 11:00:00",12.9756843,77.5660749,NO2,NA,NA,NA
India,Karnataka,Bengaluru,"City Railway Station, Bengaluru - KSPCB","01-02-2024 11:00:00",12.9756843,77.5660749,CO,50,148,72
India,Karnataka,Bengaluru,"Hebbal, Bengaluru - KSPCB","01-02-2024 11:00:00",13.029152,77.585901,PM2.5,NA,NA,NA
India,Karnataka,Bengaluru,"Hombegowda Nagar, Bengaluru - KSPCB","01-02-2024 11:00:00",12.938539,77.590100,NH3,2,2,2
